Наименование,Описание,Рубрики,Адрес,Комментарий к адресу,Почтовый индекс,Микрорайон,Район,Город,Округ,Регион,Страна,Часы работы,Часовой пояс,Рейтинг,Количество отзывов,Телефон 1,Телефон 2,Телефон 3,E-mail 1,E-mail 2,Веб-сайт 1,Веб-сайт 2,Instagram,Facebook,ВКонтакте,WhatsApp 1,WhatsApp 2,WhatsApp 3,Viber 1,Viber 2,Telegram 1,Telegram 2,YouTube,Широта,Долгота,2GIS URL,Тип
Сенім,частная школа,Частные детские сады; Школы,"улица Зеина Шашкина, 32а",,050040,,Медеуский район,Алматы,,Алматы,Казахстан,Пн: 08:00-17:00; Вт: 08:00-17:00; Ср: 08:00-17:00; Чт: 08:00-17:00; Пт: 08:00-17:00,+05:00,4.4,152,87472905894,,,senimschool@mail.ru,,,,https://instagram.com/senimschool_almaty,https://facebook.com/senimschool.kz,,https://wa.me/77472905894,,,,,,,,43.222213,76.937692,https://2gis.com/firm/9429940000800292,branch
Sana Urpaq,детский сад,Частные детские сады,"проспект Сейфуллина, 469а/1",вход с ул. Торекулова,050004,,Алмалинский район,Алматы,,Алматы,Казахстан,Пн: 08:00-18:30; Вт: 08:00-18:30; Ср: 08:00-18:30; Чт: 08:00-18:30; Пт: 08:00-18:30; Сб: 08:00-18:30; Вс: 08:00-18:30,+05:00,5.0,2,87053094488,,,,,,,https://instagram.com/sana.urpaq,,,https://wa.me/77053094488,,,,,https://t.me/sanaurpaq,,,43.266163,76.929736,https://2gis.com/firm/70000001089584375,branch
SULTAN-BEIBARYS,частный детский сад,Частные детские сады,"микрорайон Хан-Тенгри, 89",1 этаж,050043,Хан-Тенгри м-н,Бостандыкский район,Алматы,,Алматы,Казахстан,"Пн: 08:00-12:00, 15:00-18:00; Вт: 08:00-12:00, 15:00-18:00; Ср: 08:00-12:00, 15:00-18:00; Чт: 08:00-12:00, 15:00-18:00; Пт: 08:00-12:00, 15:00-18:00",+05:00,5.0,48,87003030765,87272268355,,sultanbeibarys.sun@gmail.com,,http://sultan-beibarys.2gis.biz/,,https://instagram.com/sultanbeibarys.sun,,,https://wa.me/77003030765,,,,,,,,43.16794,76.892051,https://2gis.com/firm/70000001035006809,branch
Uniflexkids,частный детский сад,Частные детские сады,"микрорайон Жетысу-2, 2а",,050063,Жетысу-2 м-н,Ауэзовский район,Алматы,,Алматы,Казахстан,Пн: 08:00-18:00; Вт: 08:00-18:00; Ср: 08:00-18:00; Чт: 08:00-18:00; Пт: 08:00-18:00,+05:00,4.5,28,87787888837,87774973432,,,,,,https://instagram.com/uniflex_kids,,,https://wa.me/77774973432,https://wa.me/77787888837,,,,,,,43.22432,76.842064,https://2gis.com/firm/70000001060407886,branch
Dayir-Almaty,частный детский сад,Частные детские сады,"микрорайон Хан-Тенгри, 84",,050043,Хан-Тенгри м-н,Бостандыкский район,Алматы,,Алматы,Казахстан,Пн: 08:00-18:30; Вт: 08:00-18:30; Ср: 08:00-18:30; Чт: 08:00-18:30; Пт: 08:00-18:30,+05:00,5.0,33,87756898255,87019404482,,ms.zariwka@mail.ru,,,,https://instagram.com/detsad_dayir_almaty,,,https://wa.me/77756898255,,,,,,,,43.169071,76.891877,https://2gis.com/firm/70000001053739531,branch
Da Vinci kids,частный детский сад,Частные детские сады; Центры раннего развития детей,"улица Кашгарская, 85",1 этаж,050022,,Бостандыкский район,Алматы,,Алматы,Казахстан,Пн: 08:00-19:00; Вт: 08:00-19:00; Ср: 08:00-19:00; Чт: 08:00-19:00; Пт: 08:00-19:00,+05:00,4.0,35,87012663777,87017242924,,mail@davincikids.kz,,,,https://instagram.com/davincikids.almaty,,,https://wa.me/77012663777,https://wa.me/77017242924,,,,,,https://youtube.com/channel/UCecprOkI8Z9KC3t-7msXl3Q,43.239769,76.92902,https://2gis.com/firm/70000001028329502,branch
Сәби,частный детский сад,Частные детские сады; Центры раннего развития детей,"улица Козыбаева, 26",,050060,,Бостандыкский район,Алматы,,Алматы,Казахстан,Пн: 07:30-18:30; Вт: 07:30-18:30; Ср: 07:30-18:30; Чт: 07:30-18:30; Пт: 07:30-18:30,+05:00,4.9,65,87025581666,,,erzh84@mail.ru,kittifox93@bk.ru,http://sabi-english.kz,,https://instagram.com/sadik_sabi_almaty,,,https://wa.me/77025581666,,,,,,,,43.21192,76.913618,https://2gis.com/firm/70000001078803089,branch
Fastrackids,частный детский сад,Частные детские сады,"улица Молодёжная, 4",1 этаж,050023,Баганашыл м-н,Бостандыкский район,Алматы,,Алматы,Казахстан,Пн: 08:00-19:00; Вт: 08:00-19:00; Ср: 08:00-19:00; Чт: 08:00-19:00; Пт: 08:00-19:00,+05:00,4.9,22,87772548686,,,fastrackids.baganashyl@mail.ru,,http://baganashyl.fastrackids.kz,,https://instagram.com/fastrackids_baganashyl_almaty,,,https://wa.me/77772548686,,,,,,,,43.195601,76.912348,https://2gis.com/firm/70000001032965423,branch
Lion Garden 2,частный детский сад,Частные детские сады,"улица Домбыра, 28",,050010,Кок-Тобе м-н,Медеуский район,Алматы,,Алматы,Казахстан,Пн: 00:00-24:00; Вт: 00:00-24:00; Ср: 00:00-24:00; Чт: 00:00-24:00; Пт: 00:00-24:00; Сб: 00:00-24:00; Вс: 00:00-24:00,+05:00,5.0,9,87054033373,,,,,,,https://instagram.com/lion_garden2,,,https://wa.me/77054033373,,,,,,,,43.245904,76.969465,https://2gis.com/firm/70000001079596931,branch
Zeine Kids,частный детский сад,Частные детские сады,"улица Сарыарка, 1/3",,050019,Кайрат м-н,Турксибский район,Алматы,,Алматы,Казахстан,Пн: 08:00-18:00; Вт: 08:00-18:00; Ср: 08:00-18:00; Чт: 08:00-18:00; Пт: 08:00-18:00,+05:00,4.3,63,87013007974,87015195166,,,,,,https://instagram.com/zeine.sadik,,,https://wa.me/77013007974,https://wa.me/77015195166,,,,,,,43.296642,76.976785,https://2gis.com/firm/70000001062881374,branch
Elite Child,частный детский сад,Частные детские сады; Логопед,"улица Байшешек, 1",,050044,,Бостандыкский район,Алматы,,Алматы,Казахстан,Пн: 08:00-18:00; Вт: 08:00-18:00; Ср: 08:00-18:00; Чт: 08:00-18:00; Пт: 08:00-18:00,+05:00,5.0,9,87059002006,,,elitechild@mail.ru,,,,https://instagram.com/elitechild.kz,,,https://wa.me/77059002006,,,,,,,,43.213165,76.92339,https://2gis.com/firm/70000001076456786,branch
Чудесная страна,частный детский сад,Частные детские сады,"Радлова улица, 22",,050010,Кок-Тобе м-н,Медеуский район,Алматы,,Алматы,Казахстан,Пн: 08:00-19:00; Вт: 08:00-19:00; Ср: 08:00-19:00; Чт: 08:00-19:00; Пт: 08:00-19:00,+05:00,4.6,16,87078207101,,,,,,,https://instagram.com/chudesnaya_strana_,https://facebook.com/chudo.strana.medeuskiy,,https://wa.me/77077888052,https://wa.me/77000333945,,,,,,,43.24379,76.973777,https://2gis.com/firm/70000001034936701,branch
Дар речи,​детский сад с предшкольной подготовкой,Частные детские сады; Центры раннего развития детей; Логопед; Помощь в обучении,"улица Альма-матер, 9",,,Рахат (Наурызбайский район) м-н,Наурызбайский район,Алматы,,Алматы,Казахстан,Пн: 08:30-18:00; Вт: 08:30-18:00; Ср: 08:30-18:00; Чт: 08:30-18:00; Пт: 08:30-18:00; Сб: 08:30-18:00; Вс: 08:30-18:00,+05:00,5.0,6,87788133190,87475224952 (монтессори),,,,,,https://instagram.com/dar_rechi_almaty,,,https://wa.me/77788133190,,,,,,,,43.190588,76.858113,https://2gis.com/firm/70000001080012307,branch
Almaland,частный детский сад,Частные детские сады,"улица Огородная, 8",,050040,,Бостандыкский район,Алматы,,Алматы,Казахстан,Пн: 08:00-18:30; Вт: 08:00-18:30; Ср: 08:00-18:30; Чт: 08:00-18:30; Пт: 08:00-18:30 (по предварительной записи),+05:00,4.3,59,87477230374,,,,,,,https://instagram.com/almaland_kids,https://facebook.com/Almaland,,,,,,,,,,43.23221,76.929766,https://2gis.com/firm/70000001017973629,branch
Samruk kids club,частный детский сад,Частные детские сады,"улица Ораза Абишева, 46",,050045,Нур Алатау м-н,Бостандыкский район,Алматы,,Алматы,Казахстан,Пн: 08:00-18:00; Вт: 08:00-18:00; Ср: 08:00-18:00; Чт: 08:00-18:00; Пт: 08:00-18:00,+05:00,5.0,22,87058658551,,,too_parassat@mail.ru,,,,https://instagram.com/samruk.kids.club,,,https://wa.me/77058658551,,,,,https://t.me/+77058658551,,,43.174438,76.895557,https://2gis.com/firm/70000001061881447,branch
Dastur 2,частный детский сад,Частные детские сады,"Мамыр-4 микрорайон, 119",,050036,Мамыр-4 м-н,Ауэзовский район,Алматы,,Алматы,Казахстан,Пн: 07:30-18:00; Вт: 07:30-18:00; Ср: 07:30-18:00; Чт: 07:30-18:00; Пт: 07:30-18:00,+05:00,5.0,12,87076856960,87075575039,87015575039,,,,,https://instagram.com/dastur_balabaksha_2,,,https://wa.me/77076856960,https://wa.me/77015575039,,,,,,,43.217476,76.844146,https://2gis.com/firm/70000001052404749,branch
АЛИМ,,Частные детские сады; Центры раннего развития детей,"2-й микрорайон, 7а",,050062,2 м-н,Ауэзовский район,Алматы,,Алматы,Казахстан,Пн: 08:00-19:00; Вт: 08:00-19:00; Ср: 08:00-19:00; Чт: 08:00-19:00; Пт: 08:00-19:00,+05:00,4.7,86,87711292564,,,detsadalim@mail.ru,,,,https://instagram.com/detsad_alim,https://facebook.com/detsadalim7a,https://vk.com/detsadalim,https://wa.me/77711292564,,,,,,,,43.233692,76.855893,https://2gis.com/firm/9429940001172303,branch
Magic Kingdom,частный детский сад,Частные детские сады; Логопед,"улица Тажибаевой, 157 к2",,050060,,Бостандыкский район,Алматы,,Алматы,Казахстан,Пн: 08:00-18:30; Вт: 08:00-18:30; Ср: 08:00-18:30; Чт: 08:00-18:30; Пт: 08:00-18:30,+05:00,4.5,59,87478222159,,,mkingdom0111@gmail.com,,,,https://instagram.com/magickingdom_almaty,,,https://wa.me/77478222159,,,,,https://t.me/+77478222159,,,43.207795,76.891003,https://2gis.com/firm/70000001056354850,branch
Маленькая страна,частный детский сад,Частные детские сады,"улица Манаса, 14",,050026,,Алмалинский район,Алматы,,Алматы,Казахстан,"Пн: 08:00-13:00, 15:00-19:00; Вт: 08:00-13:00, 15:00-19:00; Ср: 08:00-13:00, 15:00-19:00; Чт: 08:00-13:00, 15:00-19:00; Пт: 08:00-13:00, 15:00-19:00",+05:00,4.8,37,87775871112,,,issabanel@gmail.com,,,,https://instagram.com/malenkaya_strana14,,,https://wa.me/77775871112,,,,,,,,43.247713,76.907825,https://2gis.com/firm/9429940001093431,branch
Teams Kindergarten,,Частные детские сады,"6-й переулок, 25/1 блок 4",,050044,Ерменсай м-н,Бостандыкский район,Алматы,,Алматы,Казахстан,Пн: 08:00-19:00; Вт: 08:00-19:00; Ср: 08:00-19:00; Чт: 08:00-19:00; Пт: 08:00-19:00,+05:00,5.0,20,87071332494,,,teams.kindergarten.kz@gmail.com,,,,https://instagram.com/teams.almaty,,,https://wa.me/77071332494,,,,,,,,43.196049,76.932297,https://2gis.com/firm/70000001080853327,branch
Academ Kids,детский центр,Частные детские сады; Центры раннего развития детей; Спортивные секции; Детские / подростковые клубы,"улица Хусаинова, 198",,050060,,Бостандыкский район,Алматы,,Алматы,Казахстан,Пн: 08:00-19:00; Вт: 08:00-19:00; Ср: 08:00-19:00; Чт: 08:00-19:00; Пт: 08:00-19:00,+05:00,4.7,22,87053097799,87006402090,,,,,,https://instagram.com/academkids.kz,,,https://wa.me/77006402090,https://wa.me/77053097799,,,,,,,43.210464,76.8924,https://2gis.com/firm/70000001066682252,branch
Happy Land,частный детский сад,Частные детские сады; Центры раннего развития детей,"улица Вольная, 14",,050050,,Жетысуский район,Алматы,,Алматы,Казахстан,Пн: 08:00-18:00; Вт: 08:00-18:00; Ср: 08:00-18:00; Чт: 08:00-18:00; Пт: 08:00-18:00 (дежурная группа: пн-пт 18:00-19:00),+05:00,4.1,98,87772260626,,,h-land12@mail.ru,,http://www.happyland.kz,,https://instagram.com/happylandalmaty,https://facebook.com/hland.kz,,https://wa.me/77772260626,,,,,,,,43.272392,76.928976,https://2gis.com/firm/9429940000792627,branch
FasTracKids,образовательный центр,Частные детские сады; Центры раннего развития детей; Логопед; Детские лагеря,"улица Басбатыр, 7",,050010,Кок-Тобе м-н,Медеуский район,Алматы,,Алматы,Казахстан,Пн: 08:00-19:00; Вт: 08:00-19:00; Ср: 08:00-19:00; Чт: 08:00-19:00; Пт: 08:00-19:00,+05:00,5.0,37,87073424212,,,neuroftk@mail.ru,,http://fastrackids-neuro.com,,https://instagram.com/fastrackids_neuro,,,https://wa.me/77073424212,,,,,https://t.me/+77073424212,,,43.24657,76.970873,https://2gis.com/firm/70000001063288431,branch
Ивушка,детский сад,Частные детские сады,"проспект Сейфуллина, 516",,050012,,Алмалинский район,Алматы,,Алматы,Казахстан,Пн: 08:00-19:00; Вт: 08:00-19:00; Ср: 08:00-19:00; Чт: 08:00-19:00; Пт: 08:00-19:00,+05:00,4.2,44,87015575147,87272275368,87272673652,,,http://ivushkasadik.kz,,https://instagram.com/ivushka_sadik,,,https://wa.me/77015575147,,,,,,,,43.247617,76.934893,https://2gis.com/firm/9429940000795153,branch
Kids smile,частный детский сад,Частные детские сады,"улица Новгородская, 5",,050050,,Жетысуский район,Алматы,,Алматы,Казахстан,Пн: 08:00-18:30; Вт: 08:00-18:30; Ср: 08:00-18:30; Чт: 08:00-18:30; Пт: 08:00-18:30,+05:00,3.6,21,87750522202,87087599859,,,,,,https://instagram.com/kidssmile_alm,,,https://wa.me/77087599859,https://wa.me/77750522202,,,,,,,43.270966,76.927164,https://2gis.com/firm/70000001063438053,branch
Новое Поколение,детский образовательный центр,Частные детские сады; Центры раннего развития детей; Логопед,"микрорайон Мамыр 7, 8/1",,050036,Достык м-н,Ауэзовский район,Алматы,,Алматы,Казахстан,Пн: 08:00-18:30; Вт: 08:00-18:30; Ср: 08:00-18:30; Чт: 08:00-18:30; Пт: 08:00-18:30,+05:00,4.7,59,87773713688,87073500804,,jana_urpaq@mail.ru,,,,https://instagram.com/jana_urpaq_balabaksha,,,https://wa.me/77773713688,https://wa.me/77073500804,,,,,,,43.215868,76.837401,https://2gis.com/firm/70000001052231566,branch
Тип-Топ,частный детский сад,Частные детские сады,"улица Орманова, 32/3",,050010,,Медеуский район,Алматы,,Алматы,Казахстан,Пн: 08:10-18:30; Вт: 08:10-18:30; Ср: 08:10-18:30; Чт: 08:10-18:30; Пт: 08:10-18:30,+05:00,4.6,17,87272412731,87072920611,,,,,,https://instagram.com/sadtiptop.kz,https://facebook.com/100016794781046,,https://wa.me/77072920611,,,,,,,,43.258813,76.971387,https://2gis.com/firm/70000001022066557,branch
Sana,частный детский сад,Частные детские сады; Нейропсихолог; Дефектолог; Начальные школы-детские сады / Прогимназии; Логопед,"улица Навои, 208/7",,050043,,Бостандыкский район,Алматы,,Алматы,Казахстан,Пн: 08:00-18:00; Вт: 08:00-18:00; Ср: 08:00-18:00; Чт: 08:00-18:00; Пт: 08:00-18:00,+05:00,4.8,24,87758627721,,,zhibek10.04.1991@mail.ru,,,,https://instagram.com/sana.balabaqsha,,,https://wa.me/77758627721,,,,,,,,43.205505,76.886393,https://2gis.com/firm/70000001084330466,branch
Радуга-Land,частный детский сад,Частные детские сады,"улица Тохтарова, 6",,050052,Таугуль-3 м-н,Ауэзовский район,Алматы,,Алматы,Казахстан,Пн: 08:00-18:30; Вт: 08:00-18:30; Ср: 08:00-18:30; Чт: 08:00-18:30; Пт: 08:00-18:30,+05:00,5.0,18,87077022092,87077665296,,raduga.land@mail.ru,,http://land-kindergarten.business.site,,https://instagram.com/detskysadraduga,,,https://wa.me/77077022092,https://wa.me/77077665296,,,,https://t.me/+77077022092,,,43.198674,76.851745,https://2gis.com/firm/70000001020082377,branch
Kulpash,частный детский сад,Частные детские сады,"улица Жуковского, 12",,050010,,Медеуский район,Алматы,,Алматы,Казахстан,Пн: 08:00-18:30; Вт: 08:00-18:30; Ср: 08:00-18:30; Чт: 08:00-18:30; Пт: 08:00-18:30,+05:00,5.0,8,87781156749,,,,,,,https://instagram.com/sad_kulpash,,,https://wa.me/77781156749,,,,,,,,43.252127,76.967271,https://2gis.com/firm/70000001068015774,branch
Apple Tree International School,английская международная школа-детский сад,Частные детские сады; Начальные школы-детские сады / Прогимназии; Школы,"улица Зеина Шашкина, 3",1 этаж,050040,,Бостандыкский район,Алматы,,Алматы,Казахстан,Пн: 08:00-16:45; Вт: 08:00-16:45; Ср: 08:00-16:45; Чт: 08:00-16:45; Пт: 08:00-16:45,+05:00,4.3,7,87015129854,,,info@appletreeschool.kz,,,,https://instagram.com/atis_almaty,https://facebook.com/appletree.almaty,,https://wa.me/77015129854,,,,,,,,43.224661,76.928836,https://2gis.com/firm/9429940000802173,branch
Babycare,частный детский сад,Частные детские сады,"улица Кастеева, 74",,050010,,Медеуский район,Алматы,,Алматы,Казахстан,Пн: 08:00-19:00; Вт: 08:00-19:00; Ср: 08:00-19:00; Чт: 08:00-19:00; Пт: 08:00-19:00,+05:00,4.5,49,87087449159,87085646611,,babycare2014@mail.ru,,,,https://instagram.com/babycare_kindergarten,,,https://wa.me/77087449159,,,,,,,,43.247643,76.967345,https://2gis.com/firm/9429940001580624,branch
Interschool,детский образовательный центр,Частные детские сады; Центры раннего развития детей; Языковые школы; Детские лагеря; Логопед,"Богенбай батыра улица, 52",,050010,,Медеуский район,Алматы,,Алматы,Казахстан,Пн: 08:30-18:30; Вт: 08:30-18:30; Ср: 08:30-18:30; Чт: 08:30-18:30; Пт: 08:30-18:30,+05:00,4.9,31,87012107701,,,interschoolkz@yandex.kz,,,,https://instagram.com/interschool.almaty,https://facebook.com/interschoolkz,,,,,,,,,https://youtube.com/channel/UCng4n_fW1AwpmpI-9IqFFuA,43.254438,76.966378,https://2gis.com/firm/70000001074855468,branch
Кайсар,детский центр,Частные детские сады; Центры раннего развития детей; Спортивные секции,"улица Тажибаевой, 176",,050060,,Бостандыкский район,Алматы,,Алматы,Казахстан,Пн: 08:00-18:30; Вт: 08:00-18:30; Ср: 08:00-18:30; Чт: 08:00-18:30; Пт: 08:00-18:30,+05:00,4.6,41,87477107330,87273775872,87273271002,,,,,https://instagram.com/qaisar_dc,,,https://wa.me/77477107330,,,,,,,,43.214597,76.891102,https://2gis.com/firm/9429940000929027,branch
Болашак галым,частный детский сад,Частные детские сады,"улица Жарокова, 278а",,050060,,Бостандыкский район,Алматы,,Алматы,Казахстан,Пн: 08:00-19:00; Вт: 08:00-19:00; Ср: 08:00-19:00; Чт: 08:00-19:00; Пт: 08:00-19:00,+05:00,4.9,16,87076474405,,,bolashak.galym@gmail.com,,,,https://instagram.com/bolashak_galym,,,https://wa.me/77000558065,,,,,,,,43.208042,76.904731,https://2gis.com/firm/70000001025226759,branch
Иргели baby,частный детский сад,Частные детские сады,"улица Достык, 101",1-3 этаж,040916,,,,Карасайский район,Алматинская область,Казахстан,Пн: 07:30-18:00; Вт: 07:30-18:00; Ср: 07:30-18:00; Чт: 07:30-18:00; Пт: 07:30-18:00,+05:00,5.0,10,87771874213,,,d_sakyp@mail.ru,,http://irgelibaby.2gis.biz,,https://instagram.com/irgeli.baby,,,https://wa.me/77771874213,,,,,,,,43.231798,76.758563,https://2gis.com/firm/70000001059250892,branch
 Lolo-Жеті Бата ,детский сад,Частные детские сады,"Новый переулок, 16",,050038,Акбулак м-н,Алатауский район,Алматы,,Алматы,Казахстан,Пн: 08:00-18:00; Вт: 08:00-18:00; Ср: 08:00-18:00; Чт: 08:00-18:00; Пт: 08:00-18:00,+05:00,4.7,21,87073533650,87773533655,,,,,,https://instagram.com/7.bata_lolo,,,https://wa.me/77773533655,https://wa.me/77073533650,,,,,,,43.250323,76.83603,https://2gis.com/firm/70000001063520029,branch
Роза,частный детский сад,Частные детские сады,"улица Аубакирова, 118",,050065,Шанырак-2 м-н,Алатауский район,Алматы,,Алматы,Казахстан,Пн: 08:00-18:00; Вт: 08:00-18:00; Ср: 08:00-18:00; Чт: 08:00-18:00; Пт: 08:00-18:00,+05:00,4.6,22,87773533655,87073533650,,,,,,,,,https://wa.me/77073533650,https://wa.me/77773533655,,,,,,,43.293756,76.848079,https://2gis.com/firm/70000001036889345,branch
Елік-Ай,частный детская сад,Частные детские сады,"улица Достык, 60",,040916,,,,Карасайский район,Алматинская область,Казахстан,Пн: 07:30-18:30; Вт: 07:30-18:30; Ср: 07:30-18:30; Чт: 07:30-18:30; Пт: 07:30-18:30,+05:00,5.0,2,87786646284,,,,,,,https://instagram.com/elik_ai.balabakshasy,,,https://wa.me/77786646284,,,,,,,,43.235598,76.758766,https://2gis.com/firm/70000001064648233,branch
БАЛМИРА,частный детский сад,Частные детские сады,"улица Нурлы-Тан, 35",,040916,,,,Карасайский район,Алматинская область,Казахстан,Пн: 07:00-19:00; Вт: 07:00-19:00; Ср: 07:00-19:00; Чт: 07:00-19:00; Пт: 07:00-19:00,+05:00,1.8,12,87755296573,87023271069,,,,,,,,,https://wa.me/77755296573,https://wa.me/77023271069,,,,,,,43.232088,76.750798,https://2gis.com/firm/70000001033482195,branch
Балажан,частный детский сад,Частные детские сады,"улица Момышулы, 105",,040916,,,,Карасайский район,Алматинская область,Казахстан,Пн: 08:00-18:00; Вт: 08:00-18:00; Ср: 08:00-18:00; Чт: 08:00-18:00; Пт: 08:00-18:00; Сб: 08:00-18:00; Вс: 08:00-18:00,+05:00,2.4,5,87001722172,87013452597,87013452598,,,,,https://instagram.com/balazhan_irgeli,,,https://wa.me/77001722172,https://wa.me/77013452587,https://wa.me/77013452597,,,,,,43.229702,76.757136,https://2gis.com/firm/70000001068607060,branch
Anissa kids ,частный детский сад,Частные детские сады,"улица Шугыла, 58",,040916,,,,Карасайский район,Алматинская область,Казахстан,Пн: 07:30-18:00; Вт: 07:30-18:00; Ср: 07:30-18:00; Чт: 07:30-18:00; Пт: 07:30-18:00,+05:00,1.0,1,87471513736,,,,,,,,,,,,,,,,,,43.237416,76.759181,https://2gis.com/firm/70000001083430647,branch
Умай Ана,частный детский сад,Частные детские сады,"улица Асыл Арман, 10",1 этаж,040916,,,,Карасайский район,Алматинская область,Казахстан,Пн: 07:30-18:00; Вт: 07:30-18:00; Ср: 07:30-18:00; Чт: 07:30-18:00; Пт: 07:30-18:00,+05:00,2.6,3,87477872034,87055020299,87781285810,,,,,https://instagram.com/umaiana_asylarman,,,https://wa.me/77477872034,https://wa.me/77055020299,https://wa.me/77781285810,,,,,,43.230794,76.752704,https://2gis.com/firm/70000001036806224,branch
Акбота-Аселек,частный детский сад,Частные детские сады,"улица Шугыла, 13а",,040916,,,,Карасайский район,Алматинская область,Казахстан,Пн: 07:00-18:00; Вт: 07:00-18:00; Ср: 07:00-18:00; Чт: 07:00-18:00; Пт: 07:00-18:00,+05:00,,,87073006025,87073887577,,,,,,https://instagram.com/detskii_sa_akbota_aselek8,,,https://wa.me/77073006025,https://wa.me/77073887577,,,,,,,43.237037,76.761722,https://2gis.com/firm/70000001064662144,branch
Ақбота-Ж,частный детский сад,Частные детские сады,"улица Шугыла, 56",,040916,,,,Карасайский район,Алматинская область,Казахстан,Пн: 07:30-18:00; Вт: 07:30-18:00; Ср: 07:30-18:00; Чт: 07:30-18:00; Пт: 07:30-18:00,+05:00,1.7,3,87471513736,,,,,,,,,,,,,,,,,,43.237318,76.759403,https://2gis.com/firm/70000001083430601,branch
Даниэлья,частный детский сад,Частные детские сады,"улица Медеу, 257",,040916,,,,Карасайский район,Алматинская область,Казахстан,Пн: 07:30-18:00; Вт: 07:30-18:00; Ср: 07:30-18:00; Чт: 07:30-18:00; Пт: 07:30-18:00,+05:00,5.0,7,87059511151,,,,,,,https://instagram.com/danielya_sadik_irgeli,,,https://wa.me/77059511151,,,,,,,,43.238324,76.748424,https://2gis.com/firm/70000001063484054,branch
Ай Дай,частный детский сад,Частные детские сады,"6-й квартал, 126",,040916,,,,Карасайский район,Алматинская область,Казахстан,Пн: 07:30-18:00; Вт: 07:30-18:00; Ср: 07:30-18:00; Чт: 07:30-18:00; Пт: 07:30-18:00,+05:00,4.3,7,87012479479,,,,,,,https://instagram.com/ai_dai.kz,,,https://wa.me/77012479479,,,,,,,,43.229489,76.745739,https://2gis.com/firm/70000001052499488,branch
Акбота-Ж,частный детский сад,Частные детские сады,"улица Шугыла, 56",,040916,,,,Карасайский район,Алматинская область,Казахстан,Пн: 08:00-18:00; Вт: 08:00-18:00; Ср: 08:00-18:00; Чт: 08:00-18:00; Пт: 08:00-18:00,+05:00,2.5,7,87074859525,,,,,,,,,,https://wa.me/77074859525,,,,,,,,43.237353,76.759409,https://2gis.com/firm/70000001034602567,branch
Baby stars,частный детский сад,Частные детские сады,"улица Райымбека, 7",,040905,,,,Карасайский район,Алматинская область,Казахстан,Пн: 07:30-18:00; Вт: 07:30-18:00; Ср: 07:30-18:00; Чт: 07:30-18:00; Пт: 07:30-18:00,+05:00,4.4,26,87029767381,,,,,,,https://instagram.com/babystars_kindergarten,,,https://wa.me/77029767381,,,,,,,,43.216946,76.755145,https://2gis.com/firm/70000001061725852,branch
Балдаурен 2,детские сады,Частные детские сады,"6-й квартал, 238",1-2 этаж,040916,,,,Карасайский район,Алматинская область,Казахстан,Пн: 08:00-18:00; Вт: 08:00-18:00; Ср: 08:00-18:00; Чт: 08:00-18:00; Пт: 08:00-18:00,+05:00,2.0,4,87078529836,87784312434,,,,,,https://instagram.com/baldauren_sadik2,,,https://wa.me/77078529836,,,,,,,,43.229971,76.744364,https://2gis.com/firm/70000001065263893,branch
Жания,частный детский сад,Частные детские сады,"улица Абая, 11/21",,040905,,,,Карасайский район,Алматинская область,Казахстан,Пн: 07:00-18:30; Вт: 07:00-18:30; Ср: 07:00-18:30; Чт: 07:00-18:30; Пт: 07:00-18:30,+05:00,2.8,74,87478939918,87013186657,,,,,,https://instagram.com/sadik.zhaniya,,,https://wa.me/77478939918,https://wa.me/77013186657,,,,,,,43.21869,76.766994,https://2gis.com/firm/70000001065307916,branch
Алтын 1,частный детский сад,Частные детские сады,"улица Абая, 56",,040905,,,,Карасайский район,Алматинская область,Казахстан,Пн: 07:30-18:15; Вт: 07:30-18:15; Ср: 07:30-18:15; Чт: 07:30-18:15; Пт: 07:30-18:15,+05:00,4.7,14,87474822405,87478189395,,,,,,,,,https://wa.me/77474822405,https://wa.me/77478189395,,,,,,,43.214248,76.766803,https://2gis.com/firm/70000001065307898,branch
Айлин,частный детский сад,Частные детские сады,"улица Кок дала, 45",,040916,,,,Карасайский район,Алматинская область,Казахстан,Пн: 08:00-18:00; Вт: 08:00-18:00; Ср: 08:00-18:00; Чт: 08:00-18:00; Пт: 08:00-18:00,+05:00,,,87020664391,,,,,,,,,,https://wa.me/77020664391,,,,,,,,43.236245,76.748724,https://2gis.com/firm/70000001089790994,branch
Тимош,частный детский сад,Частные детские сады,"улица Достык, 31",,040923,,,,Карасайский район,Алматинская область,Казахстан,Пн: 08:00-18:00; Вт: 08:00-18:00; Ср: 08:00-18:00; Чт: 08:00-18:00; Пт: 08:00-18:00,+05:00,4.4,8,87077766147,,,,,,,https://instagram.com/timosh.sad,,,https://wa.me/77077766147,,,,,,,,43.215469,76.748644,https://2gis.com/firm/70000001063738434,branch
Aizere 2020,частный детский сад,Частные детские сады,"улица Жунисова, 2/87",,050071,,Наурызбайский район,Алматы,,Алматы,Казахстан,Пн: 08:00-18:00; Вт: 08:00-18:00; Ср: 08:00-18:00; Чт: 08:00-18:00; Пт: 08:00-18:00,+05:00,4.7,38,87071115830,,,,,,,https://instagram.com/sadik_aizere2020,,,https://wa.me/77071115830,,,,,,,,43.226436,76.783723,https://2gis.com/firm/70000001061382366,branch
Айналайын-Д,частный детский сад,Частные детские сады,"улица Кунаева, 8/1",,040916,,,,Карасайский район,Алматинская область,Казахстан,Пн: 07:30-18:00; Вт: 07:30-18:00; Ср: 07:30-18:00; Чт: 07:30-18:00; Пт: 07:30-18:00,+05:00,3.7,3,87071622000,87773252248,,,,,,https://instagram.com/ainalayin_d_balabakshasy_,,,https://wa.me/77071622000,,,,,https://t.me/+77071622000,,,43.242835,76.763742,https://2gis.com/firm/70000001064660883,branch
Нурайка,частный детский сад,Частные детские сады; Центры раннего развития детей,"улица Жибек Жолы, 79a",,040916,,,,Карасайский район,Алматинская область,Казахстан,Пн: 07:00-18:30; Вт: 07:00-18:30; Ср: 07:00-18:30; Чт: 07:00-18:30; Пт: 07:00-18:30,+05:00,,,87783777126,,,,,,,,,,https://wa.me/77783777126,,,,,,,,43.242678,76.746478,https://2gis.com/firm/70000001088950382,branch
Ademi ai,частный детский сад,Частные детские сады,"улица Азербаева, 7",,040905,,,,Карасайский район,Алматинская область,Казахстан,,+05:00,4.9,3,,,,,,,,,,,,,,,,,,,43.215029,76.764845,https://2gis.com/firm/70000001071481037,branch
Ай-керім,частный детский сад,Частные детские сады,"улица Иманбурлык, 48",,050035,Теректи м-н,Алатауский район,Алматы,,Алматы,Казахстан,Пн: 07:00-18:00; Вт: 07:00-18:00; Ср: 07:00-18:00; Чт: 07:00-18:00; Пт: 07:00-18:00,+05:00,5.0,25,87085346739,,,,,,,https://instagram.com/aikerim_kids,,,https://wa.me/77085346739,,,,,,,,43.235837,76.784359,https://2gis.com/firm/70000001079804733,branch
Аруназ,Частный детский сад,Частные детские сады,"улица Жунисова, 119",,050035,,Наурызбайский район,Алматы,,Алматы,Казахстан,Пн: 08:00-18:00; Вт: 08:00-18:00; Ср: 08:00-18:00; Чт: 08:00-18:00; Пт: 08:00-18:00; Сб: 08:00-18:00; Вс: 08:00-18:00,+05:00,4.6,12,87054775927,,,,,,,https://instagram.com/arunaz.sadik,,,https://wa.me/77054775927,,,,,,,,43.217723,76.791834,https://2gis.com/firm/70000001077783468,branch
Алтын Ұрпақ,частный детский сад,Частные детские сады,"улица Аширбек Сыгай, 99",,,,Наурызбайский район,Алматы,,Алматы,Казахстан,Пн: 07:30-18:30; Вт: 07:30-18:30; Ср: 07:30-18:30; Чт: 07:30-18:30; Пт: 07:30-18:30,+05:00,4.6,23,,,,,,,,,,,,,,,,,,,43.219645,76.793629,https://2gis.com/firm/70000001036187930,branch
Чудо-детки,частный детский сад,Частные детские сады,"улица Таргап, 111",,050006,,Наурызбайский район,Алматы,,Алматы,Казахстан,Пн: 08:00-18:00; Вт: 08:00-18:00; Ср: 08:00-18:00; Чт: 08:00-18:00; Пт: 08:00-18:00,+05:00,4.6,9,87758940486,87786371869,,,,,,https://instagram.com/chudo_detki_sadik,,,https://wa.me/77758940486,https://wa.me/77786371869,,,,,,,43.219038,76.7952,https://2gis.com/firm/70000001052675870,branch
Сункар Балабақшасы,частный детский сад,Частные детские сады,"улица Айбергенова, 92",,050006,Калкаман м-н,Наурызбайский район,Алматы,,Алматы,Казахстан,Пн: 08:00-18:00; Вт: 08:00-18:00; Ср: 08:00-18:00; Чт: 08:00-18:00; Пт: 08:00-18:00,+05:00,4.6,39,87029685555,,,,,,,,,,https://wa.me/77029685555,,,,,,,,43.224009,76.796618,https://2gis.com/firm/70000001035985294,branch
Happy kids home,частный детский сад,Частные детские сады,"улица Дала, 80",,050071,Шугыла м-н,Наурызбайский район,Алматы,,Алматы,Казахстан,Пн: 08:00-18:00; Вт: 08:00-18:00; Ср: 08:00-18:00; Чт: 08:00-18:00; Пт: 08:00-18:00,+05:00,4.2,8,87478877720,,,,,,,https://instagram.com/happy_kidshome,,,https://wa.me/77478877720,,,,,,,,43.227757,76.782688,https://2gis.com/firm/70000001081150490,branch
Сәби,частный детский сад,Частные детские сады,"улица Жунисова, 81",1 этаж,050035,,Наурызбайский район,Алматы,,Алматы,Казахстан,"Пн: 07:00-13:00, 15:00-19:00; Вт: 07:00-13:00, 15:00-19:00; Ср: 07:00-13:00, 15:00-19:00; Чт: 07:00-13:00, 15:00-19:00; Пт: 07:00-13:00, 15:00-19:00",+05:00,3.8,25,87477227724,87757008771,,,,,,,,,https://wa.me/77757008771,,,,,,,,43.22109,76.79003,https://2gis.com/firm/70000001033216251,branch
Smart Children,частный детский сад,Частные детские сады,"улица Таргап, 118",,050006,,Наурызбайский район,Алматы,,Алматы,Казахстан,Пн: 08:00-19:00; Вт: 08:00-19:00; Ср: 08:00-19:00; Чт: 08:00-19:00; Пт: 08:00-19:00,+05:00,4.2,66,87475295401,,,,,,,,,,https://wa.me/77475295401,,,,,,,,43.219085,76.794673,https://2gis.com/firm/70000001039290983,branch
Баракат 2017,частный детский сад,Частные детские сады,"улица Таргап, 122",,050006,,Наурызбайский район,Алматы,,Алматы,Казахстан,Пн: 08:00-18:00; Вт: 08:00-18:00; Ср: 08:00-18:00; Чт: 08:00-18:00; Пт: 08:00-18:00,+05:00,5.0,2,87086619080,,,,,,,https://instagram.com/barakatbalabakshasy,,,https://wa.me/77086619080,,,,,,,,43.218709,76.794761,https://2gis.com/firm/70000001036842519,branch
Ак-Аянур,частный детский сад,Частные детские сады,"улица Ибрая Жакаева, 85",,050035,Калкаман м-н,Наурызбайский район,Алматы,,Алматы,Казахстан,Пн: 07:00-19:00; Вт: 07:00-19:00; Ср: 07:00-19:00; Чт: 07:00-19:00; Пт: 07:00-19:00,+05:00,5.0,3,87053356915,87477061185,,,,,,,,,https://wa.me/77053356915,,,,,,,,43.224144,76.795861,https://2gis.com/firm/70000001027314767,branch
Шапағат,частный детский сад,Частные детские сады,"улица Таргап, 117",,050006,,Наурызбайский район,Алматы,,Алматы,Казахстан,Пн: 08:00-19:00; Вт: 08:00-19:00; Ср: 08:00-19:00; Чт: 08:00-19:00; Пт: 08:00-19:00,+05:00,4.2,18,87073867987,,,,,,,,,,https://wa.me/77073867987,,,,,,,,43.218581,76.795835,https://2gis.com/firm/70000001079741105,branch
Ақзере,частный детский сад,Частные детские сады,"улица Дала, 149",,050071,Шугыла м-н,Наурызбайский район,Алматы,,Алматы,Казахстан,Пн: 07:30-18:30; Вт: 07:30-18:30; Ср: 07:30-18:30; Чт: 07:30-18:30; Пт: 07:30-18:30,+05:00,4.4,6,87014094048,,,,,,,,,,https://wa.me/77014094048,,,,,,,,43.225604,76.782969,https://2gis.com/firm/70000001065452437,branch
Ziatker-2023,частный детский сад,Частные детские сады,"улица Аширбек Сыгай, 39",,050006,,Наурызбайский район,Алматы,,Алматы,Казахстан,Пн: 07:30-18:30; Вт: 07:30-18:30; Ср: 07:30-18:30; Чт: 07:30-18:30; Пт: 07:30-18:30,+05:00,3.0,2,87071627374,87477628508,,,,,,https://instagram.com/ziatker_sad,,,https://wa.me/77071627374,https://wa.me/77477628508,,,,,,,43.225513,76.789787,https://2gis.com/firm/70000001080616747,branch
Радуга,частный детский сад,Частные детские сады,"улица Таргап, 109",,050006,,Наурызбайский район,Алматы,,Алматы,Казахстан,Пн: 08:00-18:00; Вт: 08:00-18:00; Ср: 08:00-18:00; Чт: 08:00-18:00; Пт: 08:00-18:00,+05:00,4.9,2,87077760206,,,,,,,https://instagram.com/radugadetskiisad,,,https://wa.me/77077760206,,,,,,,,43.219228,76.795073,https://2gis.com/firm/70000001053988319,branch
Balazhan,частный детский сад,Частные детские сады,"улица Айбергенова, 2д",,050035,Калкаман м-н,Наурызбайский район,Алматы,,Алматы,Казахстан,Пн: 07:00-19:00; Вт: 07:00-19:00; Ср: 07:00-19:00; Чт: 07:00-19:00; Пт: 07:00-19:00,+05:00,4.6,9,87029685555,,,,,,,,,,https://wa.me/77029685555,,,viber://chat/?number=77029685555,,,,,43.228863,76.793568,https://2gis.com/firm/70000001035845615,branch
Нұрлы шың,частный детский сад,Частные детские сады,"улица Айбергенова, 67",,050006,Калкаман м-н,Наурызбайский район,Алматы,,Алматы,Казахстан,Пн: 08:00-18:00; Вт: 08:00-18:00; Ср: 08:00-18:00; Чт: 08:00-18:00; Пт: 08:00-18:00,+05:00,4.5,6,87075844848,87474035009,,,,,,,,,https://wa.me/77474035009,https://wa.me/77075844848,,,,,,,43.22267,76.797999,https://2gis.com/firm/70000001028472119,branch
Zam-zam,детский сад,Частные детские сады,"улица Шектибай, 37",,,Теректи м-н,Алатауский район,Алматы,,Алматы,Казахстан,Пн: 08:00-18:30; Вт: 08:00-18:30; Ср: 08:00-18:30; Чт: 08:00-18:30; Пт: 08:00-18:30,+05:00,2.0,1,87016413738,87478018858,,,,,,https://instagram.com/sadik.zamzam,,,https://wa.me/77016413738,https://wa.me/77478018858,,,,,,,43.238234,76.784502,https://2gis.com/firm/70000001050824769,branch
Nur_ai,частный детский сад,Частные детские сады,"улица Кенжетаева, 46",,050060,,Наурызбайский район,Алматы,,Алматы,Казахстан,Пн: 08:00-18:00; Вт: 08:00-18:00; Ср: 08:00-18:00; Чт: 08:00-18:00; Пт: 08:00-18:00,+05:00,3.9,4,87029464571,,,,,,,,,,https://wa.me/77029464571,,,,,,,,43.225227,76.788207,https://2gis.com/firm/70000001083443189,branch
Алем,частный детский сад,Частные детские сады,"улица Нурлы тан, 17",,050006,Шугыла м-н,Наурызбайский район,Алматы,,Алматы,Казахстан,Пн: 07:30-18:00; Вт: 07:30-18:00; Ср: 07:30-18:00; Чт: 07:30-18:00; Пт: 07:30-18:00,+05:00,4.2,6,87087372775,87077183282,,,,,,,,,https://wa.me/77087372775,https://wa.me/77077183282,,,,,,,43.214803,76.793876,https://2gis.com/firm/70000001069463178,branch
Бал-Дария,частный детский сад,Частные детские сады,"улица Аширбек Сыгай, 55",,,,Наурызбайский район,Алматы,,Алматы,Казахстан,Пн: 07:00-19:00; Вт: 07:00-19:00; Ср: 07:00-19:00; Чт: 07:00-19:00; Пт: 07:00-19:00,+05:00,1.8,5,87784617967,,,,,,,,,,https://wa.me/77784617967,,,,,,,,43.224151,76.790965,https://2gis.com/firm/70000001045698853,branch
Тарлан,частный детский сад,Частные детские сады; Помощь в обучении; Логопед,"улица Тастобе, 16",1 этаж,050071,Теректи м-н,Алатауский район,Алматы,,Алматы,Казахстан,Пн: 07:00-19:00; Вт: 07:00-19:00; Ср: 07:00-19:00; Чт: 07:00-19:00; Пт: 07:00-19:00,+05:00,4.9,1,87017607762,87017880503,,,,,,https://instagram.com/tarlan_sadik_almaty,,,https://wa.me/77017607762,https://wa.me/77017880503,,,,,,,43.237985,76.789302,https://2gis.com/firm/70000001038502509,branch
Бал-Бала,частный детский сад,Частные детские сады,"улица Абая, 5г",,040905,,,,Карасайский район,Алматинская область,Казахстан,Пн: 08:00-18:00; Вт: 08:00-18:00; Ср: 08:00-18:00; Чт: 08:00-18:00; Пт: 08:00-18:00,+05:00,5.0,3,87013498398,,,,,,,,,,https://wa.me/77013498398,,,,,,,,43.217842,76.766885,https://2gis.com/firm/70000001082788952,branch
Bambino,частный детский сад,Частные детские сады,"улица Жуалы, 36",1-3 этаж,050006,,Наурызбайский район,Алматы,,Алматы,Казахстан,Пн: 08:00-18:00; Вт: 08:00-18:00; Ср: 08:00-18:00; Чт: 08:00-18:00; Пт: 08:00-18:00,+05:00,3.3,7,87777760677,87087674561,,,,,,,,,https://wa.me/77777760677,https://wa.me/77087674561,,,,,,,43.232127,76.788942,https://2gis.com/firm/70000001052515720,branch
Saniya,частный детский сад,Частные детские сады,"улица Жиренкол, 25",,,Теректи м-н,Алатауский район,Алматы,,Алматы,Казахстан,Пн: 07:00-19:00; Вт: 07:00-19:00; Ср: 07:00-19:00; Чт: 07:00-19:00; Пт: 07:00-19:00,+05:00,5.0,1,87018470188 (единый номер: пн-пт 7:00-19:00),,,,,,,https://instagram.com/det_sad_sanya,,,https://wa.me/77018470188,,,,,,,,43.23721,76.799493,https://2gis.com/firm/70000001089006317,branch
Еркетай Үміт ,частный детский сад,Частные детские сады,"улица Талсуат, 46",,,Теректи м-н,Алатауский район,Алматы,,Алматы,Казахстан,Пн: 08:30-18:15; Вт: 08:30-18:15; Ср: 08:30-18:15; Чт: 08:30-18:15; Пт: 08:30-18:15,+05:00,5.0,12,87085916038,,,,,,,https://instagram.com/erketai_umit_balabakshasy,,,https://wa.me/77085916038,,,,,,,,43.238708,76.786439,https://2gis.com/firm/70000001086983912,branch
Айша,частный детский сад,Частные детские сады,"улица Орталык, 23",,050071,Теректи м-н,Алатауский район,Алматы,,Алматы,Казахстан,Пн: 08:00-18:00; Вт: 08:00-18:00; Ср: 08:00-18:00; Чт: 08:00-18:00; Пт: 08:00-18:00,+05:00,3.5,13,87471018515,87011414696,,,,,,https://instagram.com/aisha_balabakshasy,,,https://wa.me/77471018515,https://wa.me/77011414696,,,,,,,43.244397,76.792135,https://2gis.com/firm/70000001062500012,branch
MiMi,частный детский сад,Частные детские сады,"улица Кенжетаева, 126",,050060,,Наурызбайский район,Алматы,,Алматы,Казахстан,Пн: 08:00-18:30; Вт: 08:00-18:30; Ср: 08:00-18:30; Чт: 08:00-18:30; Пт: 08:00-18:30; Сб: 08:00-18:30; Вс: 08:00-18:30,+05:00,3.5,16,87078302020,,,,,,,https://instagram.com/mimi_detsad,,,https://wa.me/77078302020,,,,,,,,43.218009,76.79218,https://2gis.com/firm/70000001075158302,branch
Балапандар,частный детский сад,Частные детские сады,"улица Арман, 101Б",,050038,Калкаман-2 м-н,Наурызбайский район,Алматы,,Алматы,Казахстан,Пн: 07:30-17:30; Вт: 07:30-17:30; Ср: 07:30-17:30; Чт: 07:30-17:30; Пт: 07:30-17:30,+05:00,4.9,24,87478877720,,,,,,,https://instagram.com/sadik_kalkaman,,,https://wa.me/77478877720,,,,,,,,43.206219,76.808443,https://2gis.com/firm/70000001034546984,branch
Бал-Дария,частный детский сад,Частные детские сады,"микрорайон Достык, 128",,050071,Шугыла м-н,Наурызбайский район,Алматы,,Алматы,Казахстан,Пн: 07:30-18:30; Вт: 07:30-18:30; Ср: 07:30-18:30; Чт: 07:30-18:30; Пт: 07:30-18:30,+05:00,3.5,21,87478721494,87075202994,,,,,,https://instagram.com/bala_darya,,,https://wa.me/77478721494,,,,,,,,43.217869,76.796721,https://2gis.com/firm/70000001036720909,branch
Медина,частный детский сад,Частные детские сады,"квартал Жетису, 105/1",,,Теректи м-н,Алатауский район,Алматы,,Алматы,Казахстан,"Пн: 07:00-13:00, 15:00-19:00; Вт: 07:00-13:00, 15:00-19:00; Ср: 07:00-13:00, 15:00-19:00; Чт: 07:00-13:00, 15:00-19:00; Пт: 07:00-13:00, 15:00-19:00",+05:00,4.0,5,87773088885,,,,,,,https://instagram.com/medina_balabakshasi,,,https://wa.me/77773088885,,,,,,,,43.243159,76.787219,https://2gis.com/firm/70000001045237070,branch
Baby boom,частный детский сад,Частные детские сады,"улица Нарсай, 3",,050000,Теректи м-н,Алатауский район,Алматы,,Алматы,Казахстан,Пн: 07:30-18:30; Вт: 07:30-18:30; Ср: 07:30-18:30; Чт: 07:30-18:30; Пт: 07:30-18:30,+05:00,5.0,2,87471141473,,,,,,,https://instagram.com/baby_boom_sadik,,,https://wa.me/77471141473,,,,,,,,43.241703,76.787231,https://2gis.com/firm/70000001031945554,branch
Мерей,частный детский сад,Частные детские сады,"улица Актамберды жырау, 10",,050006,Калкаман-2 м-н,Наурызбайский район,Алматы,,Алматы,Казахстан,Пн: 07:00-19:00; Вт: 07:00-19:00; Ср: 07:00-19:00; Чт: 07:00-19:00; Пт: 07:00-19:00,+05:00,4.7,19,87074437790,87071487073,,,,,,https://instagram.com/merei_sadik_almaty,,,https://wa.me/77074437790,https://wa.me/77071487073,,,,,,,43.223013,76.80537,https://2gis.com/firm/70000001051265099,branch
Inkar kiids,частный детский сад,Частные детские сады; Логопед; Центры раннего развития детей,"улица Айналмалы, 141","1, 2 этаж",050035,Теректи м-н,Алатауский район,Алматы,,Алматы,Казахстан,Пн: 07:30-18:30; Вт: 07:30-18:30; Ср: 07:30-18:30; Чт: 07:30-18:30; Пт: 07:30-18:30,+05:00,5.0,3,87013555078,,,,,,,https://instagram.com/sadik_inkarkids,,,https://wa.me/77013555078,,,,,,,,43.24046,76.780932,https://2gis.com/firm/70000001064876943,branch
Еркеназ,частный детский сад,Частные детские сады,"улица Нарсай, 132",,050000,Теректи м-н,Алатауский район,Алматы,,Алматы,Казахстан,Пн: 07:00-17:00; Вт: 07:00-17:00; Ср: 07:00-17:00; Чт: 07:00-17:00; Пт: 07:00-17:00,+05:00,5.0,5,87754873777,87475913485,,,,,,,,,https://wa.me/77754873777,https://wa.me/77475913485,,,,,,,43.239281,76.788861,https://2gis.com/firm/70000001041790559,branch
Бал дәурен,частный детский сад,Частные детские сады,"улица Айналмалы, 138","1, 2 этаж",050035,Теректи м-н,Алатауский район,Алматы,,Алматы,Казахстан,Пн: 07:30-18:30; Вт: 07:30-18:30; Ср: 07:30-18:30; Чт: 07:30-18:30; Пт: 07:30-18:30,+05:00,1.8,8,87071306585,87078529836,,,,,,,,,https://wa.me/77078529836,https://wa.me/77071306585,,,,,,,43.240157,76.78112,https://2gis.com/firm/70000001064876939,branch
Береке-Мармар,частный детский сад,Частные детские сады,"улица Береке, 40",,,Шугыла м-н,Наурызбайский район,Алматы,,Алматы,Казахстан,Пн: 07:30-18:30; Вт: 07:30-18:30; Ср: 07:30-18:30; Чт: 07:30-18:30; Пт: 07:30-18:30,+05:00,2.4,2,87475000622,87051674747,,,,,,,,,https://wa.me/77475000622,https://wa.me/77051674747,,,,,,,43.208204,76.797818,https://2gis.com/firm/70000001076178030,branch
Данышпан,частный детский сад,Частные детские сады,"улица Байтели батыра, 54",,,Шугыла м-н,Наурызбайский район,Алматы,,Алматы,Казахстан,Пн: 07:30-18:00; Вт: 07:30-18:00; Ср: 07:30-18:00; Чт: 07:30-18:00; Пт: 07:30-18:00,+05:00,4.5,18,87016167176,,,,,,,https://instagram.com/danyshpan_almaty_,,,https://wa.me/77016167176,,,,,,,,43.213615,76.800598,https://2gis.com/firm/70000001057409943,branch
Азимут,частный детский сад,Частные детские сады,"улица Кызгалдак, 8",,,Теректи м-н,Алатауский район,Алматы,,Алматы,Казахстан,Пн: 08:00-18:00; Вт: 08:00-18:00; Ср: 08:00-18:00; Чт: 08:00-18:00; Пт: 08:00-18:00,+05:00,5.0,1,87755304845,,,,,,,,,,https://wa.me/77755304845,,,,,,,,43.245937,76.792626,https://2gis.com/firm/70000001071805721,branch
Гулым,частный детский сад,Частные детские сады,"улица Абая, 11/15",,040905,,,,Карасайский район,Алматинская область,Казахстан,Пн: 07:30-18:00; Вт: 07:30-18:00; Ср: 07:30-18:00; Чт: 07:30-18:00; Пт: 07:30-18:00,+05:00,,,87072434326,87475800490,,,,,,https://instagram.com/balabaksha_gulym_,,,https://wa.me/77475800490,https://wa.me/77072434326,,,,,,,43.219021,76.766238,https://2gis.com/firm/70000001083592524,branch
Хиуаз-Бөбек,детский сад,Частные детские сады,"улица Бейбитшилик, 1а",,040905,,,,Карасайский район,Алматинская область,Казахстан,Пн: 07:00-18:00; Вт: 07:00-18:00; Ср: 07:00-18:00; Чт: 07:00-18:00; Пт: 07:00-18:00,+05:00,4.8,9,87019016007,87477219272,87007366023,,,,,https://instagram.com/xiuazbobek,,,https://wa.me/77477219272,https://wa.me/77007366023,,,,,,,43.208683,76.770403,https://2gis.com/firm/70000001063766292,branch
Tamos Education,международная школа,Частные детские сады; Помощь в обучении; Школы,"улица Какимбека Салыкова, 140",,050045,Нур Алатау м-н,Бостандыкский район,Алматы,,Алматы,Казахстан,Пн: 08:30-17:00; Вт: 08:30-17:00; Ср: 08:30-17:00; Чт: 08:30-17:00; Пт: 08:30-17:00,+05:00,3.9,82,87470949596,,,,,http://tamos-education.kz,,https://instagram.com/tamos_education,https://facebook.com/TamosEducation,,https://wa.me/77002461980,,,,,,,,43.168065,76.910293,https://2gis.com/firm/70000001025024593,branch
Раяна-Н,частный детский сад,Частные детские сады,"улица Бойтумар, 19",1 этаж,050053,Алгабас м-н,Алатауский район,Алматы,,Алматы,Казахстан,Пн: 07:30-18:30; Вт: 07:30-18:30; Ср: 07:30-18:30; Чт: 07:30-18:30; Пт: 07:30-18:30,+05:00,5.0,3,87477560661,,,,,,,https://instagram.com/rayana_balabakshasy,,,https://wa.me/77477560661,,,,,,,,43.248931,76.799534,https://2gis.com/firm/70000001062254535,branch
Алихан 2022,частный детский сад,Частные детские сады,"улица Жетысу, 8",,040923,,,,Карасайский район,Алматинская область,Казахстан,Пн: 08:00-18:00; Вт: 08:00-18:00; Ср: 08:00-18:00; Чт: 08:00-18:00; Пт: 08:00-18:00,+05:00,,,87081781093,,,,,,,https://instagram.com/alixan_2022_balabakshasi,,,,,,,,,,,43.217595,76.745242,https://2gis.com/firm/70000001080349983,branch
Bal-balam,частный детский сад,Частные детские сады,"улица Байтерекова, 101",,050038,Акбулак м-н,Алатауский район,Алматы,,Алматы,Казахстан,Пн: 08:00-18:30; Вт: 08:00-18:30; Ср: 08:00-18:30; Чт: 08:00-18:30; Пт: 08:00-18:30,+05:00,4.3,58,87051852134,,,,,,,https://instagram.com/balbalam_detsad,,,https://wa.me/77051852134,,,,,,,,43.262306,76.822205,https://2gis.com/firm/70000001061082353,branch
Кошакан,частный детский сад,Частные детские сады,"улица Наурызбаева, 35",,050053,Алгабас м-н,Алатауский район,Алматы,,Алматы,Казахстан,Пн: 07:15-19:00; Вт: 07:15-19:00; Ср: 07:15-19:00; Чт: 07:15-19:00; Пт: 07:15-19:00,+05:00,4.6,31,87071056113,,,,,,,https://instagram.com/sadik_koshakan,,,https://wa.me/77071056113,,,,,,,,43.248946,76.811346,https://2gis.com/firm/70000001032165612,branch
Ai-ana star,частный детский сад,Частные детские сады,"улица Ашимова, 50/1",,050006,Калкаман-2 м-н,Наурызбайский район,Алматы,,Алматы,Казахстан,Пн: 09:00-18:00; Вт: 09:00-18:00; Ср: 09:00-18:00; Чт: 09:00-18:00; Пт: 09:00-18:00,+05:00,,,87782674510,,,,,,,https://instagram.com/ai_ana_star_balabaksha,,,,,,,,,,,43.221345,76.804871,https://2gis.com/firm/70000001090458543,branch
Нурлы Тан,частный детский сад,Частные детские сады,"улица Айтей батыра, 68",,050006,Калкаман-2 м-н,Наурызбайский район,Алматы,,Алматы,Казахстан,Пн: 08:00-18:30; Вт: 08:00-18:30; Ср: 08:00-18:30; Чт: 08:00-18:30; Пт: 08:00-18:30,+05:00,2.0,4,87079066679,87477007098,,,,,,,,,https://wa.me/77474070320,https://wa.me/77477007098,,,,,,,43.223045,76.816121,https://2gis.com/firm/70000001038701611,branch
Асыл-инкар ,частный детский сад,Частные детские сады,"улица Актамберды жырау, 105а",,050006,Калкаман-2 м-н,Наурызбайский район,Алматы,,Алматы,Казахстан,Пн: 08:00-18:30; Вт: 08:00-18:30; Ср: 08:00-18:30; Чт: 08:00-18:30; Пт: 08:00-18:30,+05:00,5.0,6,87773589687,,,,,,,,,,https://wa.me/77773589687,,,,,,,,43.214594,76.812384,https://2gis.com/firm/70000001035940209,branch
Еламан,частный детский сад,Частные детские сады,"улица Тобылгысай, 26",,,Теректи м-н,Алатауский район,Алматы,,Алматы,Казахстан,Пн: 07:30-18:30; Вт: 07:30-18:30; Ср: 07:30-18:30; Чт: 07:30-18:30; Пт: 07:30-18:30; Сб: 07:30-18:30,+05:00,3.7,12,87473173651,87770143340,,,,,,https://instagram.com/detskiysad.elaman,,,https://wa.me/77473173651,https://wa.me/77770143340,,,,,,,43.247685,76.781988,https://2gis.com/firm/70000001033397011,branch
Кулыншак,частный детский сад,Частные детские сады,"улица Кыдырова, 18",,050006,Калкаман-2 м-н,Наурызбайский район,Алматы,,Алматы,Казахстан,Пн: 07:00-19:00; Вт: 07:00-19:00; Ср: 07:00-19:00; Чт: 07:00-19:00; Пт: 07:00-19:00,+05:00,4.9,23,87073119477,87016006839,87273272829,,,,,https://instagram.com/qulynshaq_detsad,,,https://wa.me/77073119477,https://wa.me/77016006839,,,,,,,43.207157,76.82262,https://2gis.com/firm/9429940000978870,branch
Акназар,частный детский сад,Частные детские сады,"улица Доспановой, 43",,050071,Алгабас м-н,Алатауский район,Алматы,,Алматы,Казахстан,Пн: 07:00-18:00; Вт: 07:00-18:00; Ср: 07:00-18:00; Чт: 07:00-18:00; Пт: 07:00-18:00,+05:00,4.8,29,87777051506,87026644982,87471025501,,,,,,,,https://wa.me/77777051506,https://wa.me/77026644982,https://wa.me/77471025501,,,,,,43.247936,76.814169,https://2gis.com/firm/70000001064877378,branch
Ерке,частный детский сад,Частные детские сады,"микрорайон Баянауыл, 24Б",,050031,Баянауыл м-н,Ауэзовский район,Алматы,,Алматы,Казахстан,Пн: 07:30-18:30; Вт: 07:30-18:30; Ср: 07:30-18:30; Чт: 07:30-18:30; Пт: 07:30-18:30,+05:00,4.8,22,87763337979,87071308279,,,,,,https://instagram.com/erkesad2020,,,https://wa.me/77763337979,https://wa.me/77071308279,,,,,,,43.23913,76.817385,https://2gis.com/firm/70000001017269877,branch
Romashka Kinder,частный детский сад,Частные детские сады,"улица Трудовая, 64а",,050063,Достык м-н,Ауэзовский район,Алматы,,Алматы,Казахстан,Пн: 08:00-18:00; Вт: 08:00-18:00; Ср: 08:00-18:00; Чт: 08:00-18:00; Пт: 08:00-18:00,+05:00,4.7,10,87025509998,,,,,http://romashka-kinder.kz,,https://instagram.com/romashka_kinder,,,https://wa.me/77025509998,,,,,,,,43.231516,76.822658,https://2gis.com/firm/9429940000993777,branch
Алихан,детский сад,Частные детские сады,"улица Нурпеисова, 204",,050006,Калкаман-2 м-н,Наурызбайский район,Алматы,,Алматы,Казахстан,Пн: 08:00-18:00; Вт: 08:00-18:00; Ср: 08:00-18:00; Чт: 08:00-18:00; Пт: 08:00-18:00,+05:00,4.7,22,87075555300,,,,,,,https://instagram.com/sadik_alikhan23,,,https://wa.me/77075555300,,,,,,,,43.207754,76.823498,https://2gis.com/firm/70000001075215704,branch
Аяла Kids,детский сад,Частные детские сады,"улица Береке, 263",,,Акжар м-н,Наурызбайский район,Алматы,,Алматы,Казахстан,Пн: 08:00-18:00; Вт: 08:00-18:00; Ср: 08:00-18:00; Чт: 08:00-18:00; Пт: 08:00-18:00,+05:00,4.7,3,,,,,,,,,,,,,,,,,,,43.197549,76.801503,https://2gis.com/firm/70000001083031568,branch
AiDiNur,частный детский сад,Частные детские сады; Центры раннего развития детей; Логопед; Спортивные секции,"Мамыр-4 микрорайон, 156",,050036,Мамыр-4 м-н,Ауэзовский район,Алматы,,Алматы,Казахстан,Пн: 07:30-19:00; Вт: 07:30-19:00; Ср: 07:30-19:00; Чт: 07:30-19:00; Пт: 07:30-19:00,+05:00,4.4,24,87471770666,,,,,,,https://instagram.com/aidinur_almaty,,,https://wa.me/77471770666,,,,,,,,43.216064,76.849845,https://2gis.com/firm/70000001025966785,branch
Asylym kids,ясли-сад,Частные детские сады,"улица Сыйластык, 14",,050063,Достык м-н,Ауэзовский район,Алматы,,Алматы,Казахстан,Пн: 08:00-18:00; Вт: 08:00-18:00; Ср: 08:00-18:00; Чт: 08:00-18:00; Пт: 08:00-18:00,+05:00,4.4,16,87072665083,,,,,,,https://instagram.com/asylym_kids_almaty,,,https://wa.me/77072665083,,,,,,,,43.227724,76.830363,https://2gis.com/firm/70000001077783490,branch
Creative Kids,частный детский сад,Частные детские сады,"Мамыр-4 микрорайон, 220",,050036,Мамыр-4 м-н,Ауэзовский район,Алматы,,Алматы,Казахстан,Пн: 08:00-18:30; Вт: 08:00-18:30; Ср: 08:00-18:30; Чт: 08:00-18:30; Пт: 08:00-18:30,+05:00,5.0,3,87070695353,,,,,,,https://instagram.com/creative_kids_kzz,,,https://wa.me/77070695353,,,,,,,,43.215064,76.853108,https://2gis.com/firm/70000001089690317,branch
Аружан,частный детский сад,Частные детские сады,"улица Лапина, 39",1 этаж,050006,Калкаман-2 м-н,Наурызбайский район,Алматы,,Алматы,Казахстан,Пн: 07:30-18:30; Вт: 07:30-18:30; Ср: 07:30-18:30; Чт: 07:30-18:30; Пт: 07:30-18:30,+05:00,4.3,14,87473749934,,,,,,,,,,https://wa.me/77473749934,,,,,,,,43.226155,76.815405,https://2gis.com/firm/70000001038699797,branch
Mary Poppins,частный детский сад,Частные детские сады; Центры раннего развития детей,"улица Кали Надырова, 98/1",,050069,Карагайлы м-н,Наурызбайский район,Алматы,,Алматы,Казахстан,Пн: 07:45-18:30; Вт: 07:45-18:30; Ср: 07:45-18:30; Чт: 07:45-18:30; Пт: 07:45-18:30,+05:00,4.5,33,87475498788,,,,,,,https://instagram.com/sadik_marypoppins,,,https://wa.me/77475498788,,,,,,,,43.181963,76.844312,https://2gis.com/firm/9429940001093401,branch
Ириска,частный детский сад,Частные детские сады,"Мамыр-4 микрорайон, 162",,050036,Мамыр-4 м-н,Ауэзовский район,Алматы,,Алматы,Казахстан,Пн: 08:00-18:30; Вт: 08:00-18:30; Ср: 08:00-18:30; Чт: 08:00-18:30; Пт: 08:00-18:30,+05:00,4.9,17,87051305101,,,,,,,https://instagram.com/iriska_detkyi_center,,,https://wa.me/77051305101,,,,,,,,43.215404,76.849108,https://2gis.com/firm/70000001041916832,branch
Mazaika,​частный детский сад,Частные детские сады,"Мамыр-4 микрорайон, 144а",,050036,Мамыр-4 м-н,Ауэзовский район,Алматы,,Алматы,Казахстан,Пн: 09:00-18:00; Вт: 09:00-18:00; Ср: 09:00-18:00; Чт: 09:00-18:00; Пт: 09:00-18:00,+05:00,4.2,8,87772475870,,,,,,,,,,https://wa.me/77012321102,https://wa.me/77772475870,,,,,,,43.214724,76.846051,https://2gis.com/firm/70000001083456437,branch
BalaSiti,частный детский сад,Частные детские сады,"микрорайон Атамекен, 123",,050052,Атамекен м-н,Ауэзовский район,Алматы,,Алматы,Казахстан,Пн: 08:00-18:00; Вт: 08:00-18:00; Ср: 08:00-18:00; Чт: 08:00-18:00; Пт: 08:00-18:00,+05:00,4.3,17,87012770019,87476669875,,,,,,https://instagram.com/balasiti_,,,https://wa.me/77012770019,,,,,,,,43.206535,76.848075,https://2gis.com/firm/70000001055765810,branch
Айдария,частный детский сад,Частные детские сады,"улица Сагдиева, 59",,050067,Таусамалы м-н,Наурызбайский район,Алматы,,Алматы,Казахстан,Пн: 08:00-18:00; Вт: 08:00-18:00; Ср: 08:00-18:00; Чт: 08:00-18:00; Пт: 08:00-18:00,+05:00,3.8,15,87272973667,87057998939,87786042970,,,,,https://instagram.com/detskiisadaidarya,,,https://wa.me/77057998939,https://wa.me/77786042970,,,,,,,43.188516,76.827801,https://2gis.com/firm/9429940001267458,branch
Aganin kids,частный детский сад,Частные детские сады,"улица Жеруйык, 3/66",,,Тастыбулак м-н,Наурызбайский район,Алматы,,Алматы,Казахстан,Пн: 08:00-18:00; Вт: 08:00-18:00; Ср: 08:00-18:00; Чт: 08:00-18:00; Пт: 08:00-18:00,+05:00,5.0,6,87774522255,,,,,,,https://instagram.com/aganin_kids,,,https://wa.me/77774522255,,,,,,,,43.189112,76.819854,https://2gis.com/firm/70000001079748476,branch
Балапан,частный детский сад,Частные детские сады,"улица Жалкамыс, 1","1, 2 этаж",050027,Акжар м-н,Наурызбайский район,Алматы,,Алматы,Казахстан,Пн: 08:00-18:00; Вт: 08:00-18:00; Ср: 08:00-18:00; Чт: 08:00-18:00; Пт: 08:00-18:00,+05:00,5.0,3,87273720311,87017583003,,,,,,,,,https://wa.me/77017583003,,,,,,,,43.183488,76.798221,https://2gis.com/firm/70000001020777357,branch
Умка,частный детский сад,Частные детские сады,"Мамыр-4 микрорайон, 166",,050036,Мамыр-4 м-н,Ауэзовский район,Алматы,,Алматы,Казахстан,Пн: 08:00-19:00; Вт: 08:00-19:00; Ср: 08:00-19:00; Чт: 08:00-19:00; Пт: 08:00-19:00,+05:00,4.4,40,87272555467,87023472047,87051402011,,,http://centre-umka.kz,,,,,,,,,,,,,43.215163,76.847978,https://2gis.com/firm/9429940001690876,branch
i bala,частный детский сад,Частные детские сады,"Мамыр-4 микрорайон, 18",,050036,Мамыр-4 м-н,Ауэзовский район,Алматы,,Алматы,Казахстан,Пн: 08:00-19:00; Вт: 08:00-19:00; Ср: 08:00-19:00; Чт: 08:00-19:00; Пт: 08:00-19:00,+05:00,4.8,72,87073197832 (единая справочная),87273800096 (единая справочная),,,,,,https://instagram.com/detskii_sad_ibala_,,,https://wa.me/77073197832,,,,,,,,43.215402,76.842323,https://2gis.com/firm/70000001023963891,branch
Lion Garden,частный детский сад,Частные детские сады,"микрорайон Алмас, 57а",,050052,Алмас м-н,Ауэзовский район,Алматы,,Алматы,Казахстан,Пн: 08:00-18:00; Вт: 08:00-18:00; Ср: 08:00-18:00; Чт: 08:00-18:00; Пт: 08:00-18:00,+05:00,4.9,13,87784100007,,,,,,,https://instagram.com/lion_garden_2024,,,https://wa.me/77784100007,,,,,,,,43.207766,76.838757,https://2gis.com/firm/70000001080662478,branch
Bolashaq,частный детский сад,Частные детские сады; Центры раннего развития детей,"улица Пролетарская, 15",,050052,Шабыт м-н,Ауэзовский район,Алматы,,Алматы,Казахстан,Пн: 08:00-18:00; Вт: 08:00-18:00; Ср: 08:00-18:00; Чт: 08:00-18:00; Пт: 08:00-18:00,+05:00,5.0,33,87472555837,,,,,,,https://instagram.com/sad_bolashaq,,,,,,,,,,,43.203777,76.844283,https://2gis.com/firm/70000001068620645,branch
Ертөстік,частный детский сад,Частные детские сады,"улица Доспановой, 26",,050071,Акбулак м-н,Алатауский район,Алматы,,Алматы,Казахстан,Пн: 08:00-18:00; Вт: 08:00-18:00; Ср: 08:00-18:00; Чт: 08:00-18:00; Пт: 08:00-18:00,+05:00,3.3,16,,,,,,,,,,,,,,,,,,,43.247758,76.815182,https://2gis.com/firm/70000001020359681,branch
Indigo,частный детский сад,Частные детские сады,"улица Кенесары хана, 122/4",,,Курамыс м-н,Наурызбайский район,Алматы,,Алматы,Казахстан,Пн: 08:00-19:00; Вт: 08:00-19:00; Ср: 08:00-19:00; Чт: 08:00-19:00; Пт: 08:00-19:00,+05:00,3.6,21,,,,,,,,https://instagram.com/indigo_nursery_almaty,,,https://wa.me/77071515141,,,,,,,,43.191932,76.854847,https://2gis.com/firm/70000001029492019,branch
Нурлы Тан,частный детский сад,Частные детские сады,"улица Маулена Балакаева, 65",,050006,Калкаман-2 м-н,Наурызбайский район,Алматы,,Алматы,Казахстан,Пн: 08:00-18:30; Вт: 08:00-18:30; Ср: 08:00-18:30; Чт: 08:00-18:30; Пт: 08:00-18:30,+05:00,1.0,3,87474070320,87477007098,,,,,,,,,https://wa.me/77474070320,https://wa.me/77477007098,,,,,,,43.201189,76.831953,https://2gis.com/firm/70000001076178288,branch
Балдырған,частный детский сад,Частные детские сады,"10-й микрорайон, 12а",,050035,10 м-н,Ауэзовский район,Алматы,,Алматы,Казахстан,Пн: 08:00-18:30; Вт: 08:00-18:30; Ср: 08:00-18:30; Чт: 08:00-18:30; Пт: 08:00-18:30,+05:00,4.2,40,87474337926,87474337926,,,,,,https://instagram.com/baldirgan_balabagshasy,,,https://wa.me/77474337926,https://wa.me/77474337926,,,,,,,43.217681,76.86552,https://2gis.com/firm/70000001064785867,branch
Керемет,частный детский сад,Частные детские сады,"Мамыр-4 микрорайон, 72",,050036,Мамыр-4 м-н,Ауэзовский район,Алматы,,Алматы,Казахстан,Пн: 08:00-18:00; Вт: 08:00-18:00; Ср: 08:00-18:00; Чт: 08:00-18:00; Пт: 08:00-18:00,+05:00,4.1,16,87273816328,87017997739,,,,http://babykeremet.kz,,https://instagram.com/baby_keremet,,,https://wa.me/77017997739,,,,,,,,43.217214,76.850679,https://2gis.com/firm/9429940000796789,branch
Мурагер,частный детский сад,Частные детские сады,"Мамыр-4 микрорайон, 149",1 этаж,050036,Мамыр-4 м-н,Ауэзовский район,Алматы,,Алматы,Казахстан,Пн: 07:30-19:00; Вт: 07:30-19:00; Ср: 07:30-19:00; Чт: 07:30-19:00; Пт: 07:30-19:00,+05:00,,,87784183842 (единая справочная: пн-пт 8:00-19:00),87783750856 (единая справочная: пн-пт 8:00-19:00),,,,,,https://instagram.com/muragerdetskiisad,,,https://wa.me/77783750856,https://wa.me/77784183842,,,,,,,43.21557,76.84777,https://2gis.com/firm/70000001024678260,branch
FasTracKids,образовательный центр,Частные детские сады; Центры раннего развития детей; Детские сады; Дневные детские лагеря,"улица Нажимеденова, 29",,050070,Каргалы м-н,Наурызбайский район,Алматы,,Алматы,Казахстан,Пн: 08:00-19:00; Вт: 08:00-19:00; Ср: 08:00-19:00; Чт: 08:00-19:00; Пт: 08:00-19:00,+05:00,3.8,5,87072602020,,,,,http://kargaly.fastrackids.kz/,,https://instagram.com/fastrackids_zaman,,,https://wa.me/77072602020,,,,,https://t.me/fastrackids_nahimova,,,43.171204,76.868594,https://2gis.com/firm/70000001059714570,branch
Асылым,частный детский сад,Частные детские сады,"улица Ашимова, 259",,050006,Калкаман-2 м-н,Наурызбайский район,Алматы,,Алматы,Казахстан,Пн: 08:00-18:30; Вт: 08:00-18:30; Ср: 08:00-18:30; Чт: 08:00-18:30; Пт: 08:00-18:30,+05:00,4.6,17,87472414887,87072225085,,,,,,https://instagram.com/asylym_balabaksha_almaty,,,https://wa.me/77472414887,https://wa.me/77072225085,,,,,,,43.199246,76.822072,https://2gis.com/firm/70000001032615559,branch
Balalem,частный детский сад,Частные детские сады; Центры раннего развития детей,"Мамыр-4 микрорайон, 121а",,050036,Мамыр-4 м-н,Ауэзовский район,Алматы,,Алматы,Казахстан,Пн: 08:00-18:00; Вт: 08:00-18:00; Ср: 08:00-18:00; Чт: 08:00-18:00; Пт: 08:00-18:00,+05:00,4.8,8,87077554997,,,,,,,https://instagram.com/balalem_babyclub,,,https://wa.me/77077554997,,,,,,,,43.217233,76.843325,https://2gis.com/firm/70000001053416308,branch
Toddler,частный детский сад,Частные детские сады; Центры раннего развития детей; Детские / подростковые клубы,"улица Редько, 19",,,Каргалы м-н,Наурызбайский район,Алматы,,Алматы,Казахстан,Пн: 08:00-19:00; Вт: 08:00-19:00; Ср: 08:00-19:00; Чт: 08:00-19:00; Пт: 08:00-19:00,+05:00,4.5,40,87771121398,,,,,http://toddler.2gis.biz,,https://instagram.com/toddler_almaty,,,https://wa.me/77771121398,,,,,,,,43.165017,76.878857,https://2gis.com/firm/9429940000938833,branch
Sisters,частный детский сад,Частные детские сады,"улица Сагдиева, 81",,050067,Таусамалы м-н,Наурызбайский район,Алматы,,Алматы,Казахстан,Пн: 08:00-18:00; Вт: 08:00-18:00; Ср: 08:00-18:00; Чт: 08:00-18:00; Пт: 08:00-18:00; Сб: 08:00-18:00; Вс: 08:00-18:00,+05:00,4.4,8,87076078004,87002002258,,,,,,https://instagram.com/sisters_balabaqshasy,,,https://wa.me/77002002258,https://wa.me/77076078004,,,,,,,43.187723,76.829433,https://2gis.com/firm/70000001063470213,branch
Леопольд,частный детский сад,Частные детские сады,"улица Рипинского, 38",1 этаж,050006,Калкаман-2 м-н,Наурызбайский район,Алматы,,Алматы,Казахстан,Пн: 07:00-19:00; Вт: 07:00-19:00; Ср: 07:00-19:00; Чт: 07:00-19:00; Пт: 07:00-19:00,+05:00,5.0,10,87078347263,87026000507,,,,,,https://instagram.com/leopold.sadik,,,https://wa.me/77078347263,https://wa.me/77026000507,,,,,,,43.206356,76.826255,https://2gis.com/firm/70000001025492519,branch
Ахляк,частный детский сад,Частные детские сады,"улица Казыбек Тауасарулы, 47",,050045,Нур Алатау м-н,Бостандыкский район,Алматы,,Алматы,Казахстан,Пн: 08:00-18:00; Вт: 08:00-18:00; Ср: 08:00-18:00; Чт: 08:00-18:00; Пт: 08:00-18:00,+05:00,4.4,14,87074541833,,,,,,,https://instagram.com/ahlyak_balabaqsha,,,https://wa.me/77074541833,,,,,,,,43.177996,76.898026,https://2gis.com/firm/70000001036978354,branch
Лоло,частный детский сад,Частные детские сады,"Мамыр-4 микрорайон, 13",,050036,Мамыр-4 м-н,Ауэзовский район,Алматы,,Алматы,Казахстан,Пн: 08:00-19:00; Вт: 08:00-19:00; Ср: 08:00-19:00; Чт: 08:00-19:00; Пт: 08:00-19:00,+05:00,4.2,14,87055594200,,,,,,,https://instagram.com/lolo_kindergarten_almaty,,,https://wa.me/77055594200,,,viber://chat/?number=77055594200,,,,,43.21577,76.842104,https://2gis.com/firm/70000001033615800,branch
Al-Farabi kids,частный детский сад,Частные детские сады,"улица Хусаинова, 187",,050060,,Бостандыкский район,Алматы,,Алматы,Казахстан,Пн: 08:00-18:30; Вт: 08:00-18:30; Ср: 08:00-18:30; Чт: 08:00-18:30; Пт: 08:00-18:30,+05:00,4.3,16,87070492258,,,,,,,https://instagram.com/al_farabi_kids,,,https://wa.me/77012222552,,,,,,,,43.211944,76.891912,https://2gis.com/firm/70000001077236804,branch
Евушка,частный детский сад,Частные детские сады,"улица Суртибаева, 15",,050052,Таугуль-3 м-н,Ауэзовский район,Алматы,,Алматы,Казахстан,Пн: 08:00-19:00; Вт: 08:00-19:00; Ср: 08:00-19:00; Чт: 08:00-19:00; Пт: 08:00-19:00,+05:00,5.0,16,87055552526,87075552526,,,,,,https://instagram.com/evushka_almaty,,,https://wa.me/77055552526,https://wa.me/77075552526,,,,,,,43.195813,76.85719,https://2gis.com/firm/70000001076080519,branch
Үкілі Үміт,частный детский сад,Частные детские сады,"микрорайон 3-й, 9а/1",,050062,3-й м-н,Ауэзовский район,Алматы,,Алматы,Казахстан,Пн: 08:00-18:00; Вт: 08:00-18:00; Ср: 08:00-18:00; Чт: 08:00-18:00; Пт: 08:00-18:00,+05:00,3.7,19,87478225891,87478171134,,,,,,https://instagram.com/sad_ukili_umit,,,https://wa.me/77478225891,https://wa.me/77478171134,,,,,,,43.224619,76.84961,https://2gis.com/firm/70000001017547669,branch
Ясли-детский сад Дарын,,Частные детские сады,"улица Абулхайр-хан, 18",,050045,Нур Алатау м-н,Бостандыкский район,Алматы,,Алматы,Казахстан,Пн: 08:00-18:30; Вт: 08:00-18:30; Ср: 08:00-18:30; Чт: 08:00-18:30; Пт: 08:00-18:30,+05:00,4.3,16,87474034541,,,,,,,https://instagram.com/sadik.daryn,,,https://wa.me/77474034541,,,,,,,,43.18765,76.900899,https://2gis.com/firm/70000001033248436,branch
Rauza kids,частный детский сад,Частные детские сады,"улица Подгорная, 6а",,050023,Баганашыл м-н,Бостандыкский район,Алматы,,Алматы,Казахстан,Пн: 07:30-18:30; Вт: 07:30-18:30; Ср: 07:30-18:30; Чт: 07:30-18:30; Пт: 07:30-18:30,+05:00,5.0,1,87784085540,,,,,,,,,,https://wa.me/77784085540,,,,,,,,43.196415,76.913696,https://2gis.com/firm/70000001088205984,branch
Алтын Алма,частный детский сад,Частные детские сады,"микрорайон Атамекен, 192",1 этаж,050052,Атамекен м-н,Ауэзовский район,Алматы,,Алматы,Казахстан,Пн: 08:00-19:00; Вт: 08:00-19:00; Ср: 08:00-19:00; Чт: 08:00-19:00; Пт: 08:00-19:00,+05:00,4.3,26,87476168458,,,,,http://a-alma.kz,,https://instagram.com/detskii_sad_altyn_alma,,,https://wa.me/77476168458,,,,,,,,43.207051,76.850578,https://2gis.com/firm/9429940001278627,branch
Диар,частный детский сад,Частные детские сады,"2-й микрорайон, 40г",1 этаж,050062,2 м-н,Ауэзовский район,Алматы,,Алматы,Казахстан,Пн: 08:00-18:00; Вт: 08:00-18:00; Ср: 08:00-18:00; Чт: 08:00-18:00; Пт: 08:00-18:00,+05:00,4.6,40,87073511656,,,,,,,https://instagram.com/det.sad_diar_almaty,,,https://wa.me/77707351165,https://wa.me/77073511656,,,,,,,43.232704,76.860029,https://2gis.com/firm/70000001029888292,branch
Говорун,частный детский сад,Частные детские сады,"улица Байзакова, 244",,050008,,Алмалинский район,Алматы,,Алматы,Казахстан,Пн: 07:30-18:30; Вт: 07:30-18:30; Ср: 07:30-18:30; Чт: 07:30-18:30; Пт: 07:30-18:30,+05:00,4.5,40,87472021990,87770091222,,,,,,https://instagram.com/govorunkz2024,,,https://wa.me/77472021990,,,,,,,,43.242571,76.914522,https://2gis.com/firm/70000001063340724,branch
Балашым,частный детский сад,Частные детские сады,"улица Попова, 27",,050040,,Бостандыкский район,Алматы,,Алматы,Казахстан,Пн: 08:00-18:30; Вт: 08:00-18:30; Ср: 08:00-18:30; Чт: 08:00-18:30; Пт: 08:00-18:30,+05:00,4.9,36,87089742931,,,,,,,https://instagram.com/sadbalashym,,,https://wa.me/77089742931,,,,,,,,43.224277,76.931005,https://2gis.com/firm/70000001061509582,branch
Балапаным,частный детский сад,Частные детские сады,"Мамыр-4 микрорайон, 212",,050036,Мамыр-4 м-н,Ауэзовский район,Алматы,,Алматы,Казахстан,Пн: 08:00-18:30; Вт: 08:00-18:30; Ср: 08:00-18:30; Чт: 08:00-18:30; Пт: 08:00-18:30,+05:00,4.1,23,87786842126,87074973787,,,,,,https://instagram.com/balapanym_menim,,,https://wa.me/77074973787,https://wa.me/77786842126,,,,,,,43.214508,76.851787,https://2gis.com/firm/70000001062808970,branch
Super kinder,частный детский сад,Частные детские сады,"улица Танжарык, 14",,050045,Нур Алатау м-н,Бостандыкский район,Алматы,,Алматы,Казахстан,Пн: 08:00-18:00; Вт: 08:00-18:00; Ср: 08:00-18:00; Чт: 08:00-18:00; Пт: 08:00-18:00,+05:00,4.8,22,87081568101,87077757313,,,,,,https://instagram.com/superkinder_balabakshasi,,,https://wa.me/77077757313,https://wa.me/77057757313,,,,,,,43.190082,76.911854,https://2gis.com/firm/70000001057652832,branch
Toddler Preschool,частный детский сад,Частные детские сады,"улица Каныша Сатпаева, 90/36 блок 1",1 этаж,050046,,Бостандыкский район,Алматы,,Алматы,Казахстан,Пн: 08:30-18:00; Вт: 08:30-18:00; Ср: 08:30-18:00; Чт: 08:30-18:00; Пт: 08:30-18:00,+05:00,4.6,101,87070663858,,,,,http://Toddler.kz,,https://instagram.com/toddler_preschool,,,https://wa.me/77070663858,,,,,,,,43.231414,76.874177,https://2gis.com/firm/70000001041860099,branch
Улыбка,частный детский сад,Частные детские сады,"улица Ахмедьярова, 27",около школы №77,050040,Горный гигант м-н,Медеуский район,Алматы,,Алматы,Казахстан,Пн: 08:00-18:30; Вт: 08:00-18:30; Ср: 08:00-18:30; Чт: 08:00-18:30; Пт: 08:00-18:30,+05:00,4.7,14,,,,,,http://instasale.kz/sadikulibka,,https://instagram.com/sadik.ulibka2023,,,,,,,,https://t.me/+77755752312,,,43.216797,76.949491,https://2gis.com/firm/70000001076298862,branch
Unicus,частный детский сад,Частные детские сады,"улица Саяна Шаймерденова, 17т",1 этаж,050052,Таугуль-3 м-н,Ауэзовский район,Алматы,,Алматы,Казахстан,Пн: 08:00-18:00; Вт: 08:00-18:00; Ср: 08:00-18:00; Чт: 08:00-18:00; Пт: 08:00-18:00,+05:00,4.8,44,87012600888,87078623089,,,,http://www.unicus.tilda.ws,,https://instagram.com/unicus.kz,,,https://wa.me/77012600888,https://wa.me/77078623089,,,,,,,43.200728,76.854285,https://2gis.com/firm/70000001038508788,branch
I-sana,частный детский сад,Частные детские сады,"улица Римовой, 11",,050052,Таугуль-3 м-н,Ауэзовский район,Алматы,,Алматы,Казахстан,Пн: 07:45-18:30; Вт: 07:45-18:30; Ср: 07:45-18:30; Чт: 07:45-18:30; Пт: 07:45-18:30,+05:00,4.9,18,87071115508,87767447356,,,,,,https://instagram.com/i_sana.almaty,,,https://wa.me/77071115508,https://wa.me/77767447356,,,,,,,43.201434,76.860681,https://2gis.com/firm/70000001079603707,branch
Алтын урпак,частный детский сад,Частные детские сады,"микрорайон Шабыт, 21",,050052,Шабыт м-н,Ауэзовский район,Алматы,,Алматы,Казахстан,Пн: 08:00-18:30; Вт: 08:00-18:30; Ср: 08:00-18:30; Чт: 08:00-18:30; Пт: 08:00-18:30,+05:00,5.0,12,87273384036,,,,,,,https://instagram.com/altyn__urpaq__almaty,,,,,,,,,,,43.203755,76.848457,https://2gis.com/firm/70000001046228794,branch
Айзере,частный детский сад,Частные детские сады,"Бекзат Саттарханова улица, 3",1 этаж,050052,Таугуль-3 м-н,Ауэзовский район,Алматы,,Алматы,Казахстан,Пн: 08:00-19:00; Вт: 08:00-19:00; Ср: 08:00-19:00; Чт: 08:00-19:00; Пт: 08:00-19:00,+05:00,4.9,38,87017991635,,,,,,,https://instagram.com/aizeresadik,,,https://wa.me/77017991635,,,,,,,,43.201473,76.852636,https://2gis.com/firm/70000001032042497,branch
Зере,частный детский сад,Частные детские сады; Языковые школы; Спортивные секции; Детские / подростковые клубы,"микрорайон Атамекен, 70Б",,050052,Атамекен м-н,Ауэзовский район,Алматы,,Алматы,Казахстан,Пн: 08:00-18:30; Вт: 08:00-18:30; Ср: 08:00-18:30; Чт: 08:00-18:30; Пт: 08:00-18:30,+05:00,4.5,54,87478440270,,,,,,,https://instagram.com/zeredetskiysad,,,https://wa.me/77478440270,,,,,,,,43.208633,76.845551,https://2gis.com/firm/70000001022647223,branch
Daryndy kids,частный детский сад,Частные детские сады,"улица Турдыкуловой, 25",,050052,Таугуль-3 м-н,Ауэзовский район,Алматы,,Алматы,Казахстан,Пн: 08:00-18:30; Вт: 08:00-18:30; Ср: 08:00-18:30; Чт: 08:00-18:30; Пт: 08:00-18:30,+05:00,5.0,6,87478702470,87024697928,,,,,,https://instagram.com/daryndy_kids,,,https://wa.me/77478702470,https://wa.me/77024697928,,,,,,,43.194289,76.853095,https://2gis.com/firm/70000001084106525,branch
GoodVel,частный детский сад,Частные детские сады,"улица Курмангазы, 84а",,050022,,Алмалинский район,Алматы,,Алматы,Казахстан,Пн: 08:00-18:00; Вт: 08:00-18:00; Ср: 08:00-18:00; Чт: 08:00-18:00; Пт: 08:00-18:00,+05:00,4.3,41,87783678888,,,,,,,https://instagram.com/goodvel.kz,,,https://wa.me/77783678888,,,,,,,,43.243782,76.936811,https://2gis.com/firm/9429940001661464,branch
Bala Land,детский центр,Частные детские сады; Центры раннего развития детей,"улица Навои, 7",1 этаж,050042,,Ауэзовский район,Алматы,,Алматы,Казахстан,Пн: 08:30-18:30; Вт: 08:30-18:30; Ср: 08:30-18:30; Чт: 08:30-18:30; Пт: 08:30-18:30,+05:00,4.4,24,87478254553,,,,,http://Www.bala-land.kz,,https://instagram.com/bala_land_center,,,https://wa.me/77478254553,,,,,,,,43.217995,76.880177,https://2gis.com/firm/70000001063717821,branch
KIS Edelweiss Campus,частный детский сад,Частные детские сады,"улица Жамакаева, 256а",,050044,Эдельвейс м-н,Медеуский район,Алматы,,Алматы,Казахстан,Пн: 08:00-16:00; Вт: 08:00-16:00; Ср: 08:00-16:00; Чт: 08:00-16:00; Пт: 08:00-16:00,+05:00,,,87017700708,,,,,http://kisnet.org,,https://instagram.com/kischool_almaty,https://facebook.com/kischoolalmaty,,https://wa.me/77017700708,,,,,,,,43.206575,76.953266,https://2gis.com/firm/70000001070113345,branch
Айбала,частный детский сад,Частные детские сады,"улица Тлендиева, 215","1, 2 этаж",050046,,Алмалинский район,Алматы,,Алматы,Казахстан,Пн: 07:30-19:00; Вт: 07:30-19:00; Ср: 07:30-19:00; Чт: 07:30-19:00; Пт: 07:30-19:00,+05:00,3.4,17,87753854604,87272254183,87015954814,,,,,https://instagram.com/aibala_balabakshasy,,,https://wa.me/77015954814,,,,,,,,43.238676,76.873651,https://2gis.com/firm/70000001029855335,branch
Детский сад на Жангельдина,частный детский сад,Частные детские сады,"улица Жангельдина, 103",,050018,,Жетысуский район,Алматы,,Алматы,Казахстан,Пн: 08:00-18:00; Вт: 08:00-18:00; Ср: 08:00-18:00; Чт: 08:00-18:00; Пт: 08:00-18:00,+05:00,3.2,15,87273801341,87757617282,87022220632,,,,,,,,https://wa.me/77022220632,https://wa.me/77757617282,,,,,,,43.279341,76.956308,https://2gis.com/firm/70000001021845654,branch
AMS Poznai-ka,монтессори-сад,Частные детские сады; Центры раннего развития детей,"улица Иванилова, 42в",,050059,Горный гигант м-н,Медеуский район,Алматы,,Алматы,Казахстан,Пн: 08:00-18:00; Вт: 08:00-18:00; Ср: 08:00-18:00; Чт: 08:00-18:00; Пт: 08:00-18:00; Сб: 08:00-18:00,+05:00,5.0,1,87772698537,87772143692,,,,,,https://instagram.com/almaty_poznaika,,,,,,,,,,,43.213053,76.955333,https://2gis.com/firm/70000001081171867,branch
Alpha Generation,детский центр,Частные детские сады; Детские / подростковые клубы; Центры раннего развития детей; Логопед; Помощь в обучении,"улица Ходжанова, 55Б",1 этаж,050060,,Бостандыкский район,Алматы,,Алматы,Казахстан,Пн: 09:00-17:00; Вт: 09:00-17:00; Ср: 09:00-17:00; Чт: 09:00-17:00; Пт: 09:00-17:00,+05:00,5.0,18,87272455468,87073419990,,,,,,https://instagram.com/alpha_generation,,,https://wa.me/77073419990,,,,,,,,43.210483,76.90968,https://2gis.com/firm/9429940001387834,branch
Tender Care,британский детский сад,Частные детские сады,"улица Ходжанова, 76",4 блок; 1 этаж,050060,,Бостандыкский район,Алматы,,Алматы,Казахстан,Пн: 07:30-20:00; Вт: 07:30-20:00; Ср: 07:30-20:00; Чт: 07:30-20:00; Пт: 07:30-20:00,+05:00,4.0,33,,,,,,,,https://instagram.com/british_kindergarten,,,,,,,,,,,43.20724,76.911458,https://2gis.com/firm/70000001022721317,branch
Альтаир,частный детский сад,Частные детские сады,"улица Айтыкова, 14",,050018,,Жетысуский район,Алматы,,Алматы,Казахстан,Пн: 08:00-18:00; Вт: 08:00-18:00; Ср: 08:00-18:00; Чт: 08:00-18:00; Пт: 08:00-18:00,+05:00,3.9,32,87273670763,87477500627,,,,,,https://instagram.com/too_altair_,,,https://wa.me/77477500627,,,,,,,,43.292566,76.964008,https://2gis.com/firm/70000001017247679,branch
Super Дети,детский развивающий центр,Частные детские сады; Центры раннего развития детей; Логопед; Детские / подростковые клубы,"улица Солодовникова, 21а",2 этаж,050046,,Бостандыкский район,Алматы,,Алматы,Казахстан,Пн: 09:00-18:30; Вт: 09:00-18:30; Ср: 09:00-18:30; Чт: 09:00-18:30; Пт: 09:00-18:30,+05:00,3.2,19,87081075287,,,,,,,https://instagram.com/superdeti_minisad,,,https://wa.me/77081075287,,,,,,,,43.23331,76.893152,https://2gis.com/firm/70000001055314036,branch
isana balabaqsha,детский сад премиум класса,Частные детские сады; Центры раннего развития детей,"улица Шолпан Жандарбекова, 103",1-2 этаж,,Ерменсай м-н,Бостандыкский район,Алматы,,Алматы,Казахстан,Пн: 08:00-18:00; Вт: 08:00-18:00; Ср: 08:00-18:00; Чт: 08:00-18:00; Пт: 08:00-18:00,+05:00,4.8,19,87058887244,,,,,,,https://instagram.com/isana.balabaqsha,,,https://wa.me/77058887244,,,,,,,,43.190979,76.924133,https://2gis.com/firm/70000001064540896,branch
Умка-Тумка,частный детский сад,Частные детские сады,"улица Ильяса Жансугурова, 203",,050066,,Турксибский район,Алматы,,Алматы,Казахстан,Пн: 08:00-18:30; Вт: 08:00-18:30; Ср: 08:00-18:30; Чт: 08:00-18:30; Пт: 08:00-18:30,+05:00,3.0,7,87021004759,,,,,,,,,,https://wa.me/77021004759,,,,,,,,43.295694,76.933887,https://2gis.com/firm/9429940000897095,branch
Страна детства,частный детский сад,Частные детские сады,"улица Волочаевская, 357",,050019,,Турксибский район,Алматы,,Алматы,Казахстан,Пн: 08:00-18:30; Вт: 08:00-18:30; Ср: 08:00-18:30; Чт: 08:00-18:30; Пт: 08:00-18:30,+05:00,4.8,45,87052217160,87273396293,,,,,,https://instagram.com/strana_detstva.kz,,,https://wa.me/77052217160,,,,,,,,43.294959,76.971912,https://2gis.com/firm/9429940000801979,branch
Oxford Academy Almaty,английский частный детский сад,Частные детские сады; Центры раннего развития детей,"улица Затаевича, 77",,050040,Горный гигант м-н,Медеуский район,Алматы,,Алматы,Казахстан,Пн: 08:30-18:00; Вт: 08:30-18:00; Ср: 08:30-18:00; Чт: 08:30-18:00; Пт: 08:30-18:00,+05:00,4.7,20,87057709179,87019933390,,,,http://oxfordacademy.kz,,https://instagram.com/oxfordacademyalmaty,https://facebook.com/Oxford-Academy-Almaty-135474999869355/timeline,,https://wa.me/77019933390,https://wa.me/77057709179,,,,,,,43.216918,76.941107,https://2gis.com/firm/9429940000789237,branch
Адина,частный детский сад,Частные детские сады,"улица Табигат, 1",,050015,,Жетысуский район,Алматы,,Алматы,Казахстан,Пн: 08:00-18:30; Вт: 08:00-18:30; Ср: 08:00-18:30; Чт: 08:00-18:30; Пт: 08:00-18:30,+05:00,4.8,45,87781301717,87074973787,,,,,,https://instagram.com/sadikalmaty,,,https://wa.me/77781301717,https://wa.me/77074973787,,,,,,,43.291426,76.899932,https://2gis.com/firm/70000001040036602,branch
Акуна Матата,частный детский сад,Частные детские сады,"улица Аралкум, 6",,050048,Карасу м-н,Алатауский район,Алматы,,Алматы,Казахстан,Пн: 08:00-18:30; Вт: 08:00-18:30; Ср: 08:00-18:30; Чт: 08:00-18:30; Пт: 08:00-18:30,+05:00,4.3,28,87471808145,87017799145,,,,,,https://instagram.com/sad_akuna_matata,,,https://wa.me/77471808145,https://wa.me/77017799145,,,,,,,43.329448,76.905713,https://2gis.com/firm/70000001044817791,branch
Биғайша,частный детский сад,Частные детские сады,"улица Бекболата, 29/1",1 этаж,050024,Ожет м-н,Алатауский район,Алматы,,Алматы,Казахстан,Пн: 08:00-18:00; Вт: 08:00-18:00; Ср: 08:00-18:00; Чт: 08:00-18:00; Пт: 08:00-18:00,+05:00,4.7,79,87028000999,87028064937,,,,,,https://instagram.com/bigaisha_balabakshasy,,,https://wa.me/77028000999,https://wa.me/77028064937,,,,,,,43.309207,76.889231,https://2gis.com/firm/70000001020826704,branch
Twins,детский центр развития и коррекции,Частные детские сады; Центры раннего развития детей; Центры адаптивного спорта; Логопед; Детские / подростковые клубы,"улица Тынышбаева, 9",,050011,,Турксибский район,Алматы,,Алматы,Казахстан,"Пн: 09:00-13:00, 14:00-18:00; Вт: 09:00-13:00, 14:00-18:00; Ср: 09:00-13:00, 14:00-18:00; Чт: 09:00-13:00, 14:00-18:00; Пт: 09:00-13:00, 14:00-18:00",+05:00,4.3,23,87082028220,,,,,,,https://instagram.com/aa_twins.kz,,,https://wa.me/77054373356,,,,,,,,43.339555,76.946174,https://2gis.com/firm/70000001067950600,branch
Аманат,частный детский сад,Частные детские сады,"улица Гоголя, 156",,050026,,Алмалинский район,Алматы,,Алматы,Казахстан,Пн: 07:00-19:00; Вт: 07:00-19:00; Ср: 07:00-19:00; Чт: 07:00-19:00; Пт: 07:00-19:00,+05:00,3.5,17,87762285488,,,,,,,https://instagram.com/amanat.balabaksha,,,https://wa.me/77762285488,,,,,,,,43.257608,76.915375,https://2gis.com/firm/70000001084111560,branch
Биржан,частный детский сад,Частные детские сады,"улица Зимняя, 2",,050039,,Турксибский район,Алматы,,Алматы,Казахстан,Пн: 07:30-19:00; Вт: 07:30-19:00; Ср: 07:30-19:00; Чт: 07:30-19:00; Пт: 07:30-19:00,+05:00,4.7,28,87759933766,87272514858,87772555578,,,,,https://instagram.com/det.sad.birzhan,,,https://wa.me/77759933766,https://wa.me/77772555578,,,,,,,43.353315,76.989217,https://2gis.com/firm/70000001049488100,branch
Win-Win Montessori,,Частные детские сады,"улица Иванилова, 44Б",,050059,Горный гигант м-н,Медеуский район,Алматы,,Алматы,Казахстан,Пн: 08:00-18:00; Вт: 08:00-18:00; Ср: 08:00-18:00; Чт: 08:00-18:00; Пт: 08:00-18:00,+05:00,4.4,32,87770289210,,,,,http://winwin.kz,,https://instagram.com/win_win_montessori,,,https://wa.me/77770289210,https://wa.me/77059887012,,,,,,,43.212975,76.957179,https://2gis.com/firm/70000001034345891,branch
FasTracKids,образовательный центр,Частные детские сады; Центры раннего развития детей; Логопед; Дневные детские лагеря,"улица Береговая, 29Б",1 этаж,050051,,Медеуский район,Алматы,,Алматы,Казахстан,Пн: 08:00-19:00; Вт: 08:00-19:00; Ср: 08:00-19:00; Чт: 08:00-19:00; Пт: 08:00-19:00,+05:00,4.5,45,87077942960,,,,,http://detsad.fastrackids.kz,,https://instagram.com/fastrackids_dostyk,,,https://wa.me/77077942960,,,,,https://t.me/ftkdostyk,,,43.232532,76.961175,https://2gis.com/firm/70000001029372916,branch
Start line,частный детский сад,Частные детские сады,"улица Муканова, 180",,050026,,Алмалинский район,Алматы,,Алматы,Казахстан,Пн: 08:00-18:30; Вт: 08:00-18:30; Ср: 08:00-18:30; Чт: 08:00-18:30; Пт: 08:00-18:30,+05:00,4.9,23,87017238166 (единый номер: пн-пт 9:00-18:00),87078203933 (единый номер: пн-пт 9:00-18:00),,,,,,https://instagram.com/sadik_startline_2020,,,https://wa.me/77017238166,https://wa.me/77078203933,,viber://chat/?number=77017238166,,https://t.me/+77078203933,,,43.248872,76.915864,https://2gis.com/firm/70000001044935527,branch
Alisha,частный детский сад,Частные детские сады,"Богенбай батыра улица, 220",1 этаж,050026,,Алмалинский район,Алматы,,Алматы,Казахстан,Пн: 08:00-19:00; Вт: 08:00-19:00; Ср: 08:00-19:00; Чт: 08:00-19:00; Пт: 08:00-19:00,+05:00,4.6,39,87013455858 (единый номер: пн-пт 8:00-19:00),87071880106 (единый номер: пн-пт 8:00-19:00),,,,,,https://instagram.com/alisha_sad_,,,https://wa.me/77013455858,https://wa.me/77071880106,,,,,,,43.25084,76.916259,https://2gis.com/firm/70000001030141231,branch
Жібек ана,частный детский сад,Частные детские сады,"улица Ертаргын, 7",,041609,,,,Талгарский район,Алматинская область,Казахстан,Пн: 08:00-18:00; Вт: 08:00-18:00; Ср: 08:00-18:00; Чт: 08:00-18:00; Пт: 08:00-18:00,+05:00,3.2,9,87476280618,87756516892,,,,,,,,,https://wa.me/77756516892,https://wa.me/77476280618,,,,,,,43.285089,77.028023,https://2gis.com/firm/70000001053827668,branch
Город друзей,частный детский сад,Частные детские сады; Центры раннего развития детей,"5-й переулок, 14",,050044,Ерменсай м-н,Бостандыкский район,Алматы,,Алматы,Казахстан,Пн: 08:00-18:30; Вт: 08:00-18:30; Ср: 08:00-18:30; Чт: 08:00-18:30; Пт: 08:00-18:30,+05:00,5.0,70,87087160878,87017110443,87007001048,,,,,https://instagram.com/goroddruzei.almaty,,,https://wa.me/77017160878,https://wa.me/77087160878,https://wa.me/77007001048,,,https://t.me/+77087160878,https://t.me/+77017110443,,43.198646,76.931364,https://2gis.com/firm/70000001033559160,branch
FasTracKids,образовательный центр,Частные детские сады; Центры раннего развития детей; Логопед; Дневные детские лагеря,"улица Нахимова, 37Б",1 этаж,050040,,Бостандыкский район,Алматы,,Алматы,Казахстан,Пн: 08:00-19:00; Вт: 08:00-19:00; Ср: 08:00-19:00; Чт: 08:00-19:00; Пт: 08:00-19:00,+05:00,4.7,55,87770338885,,,,,http://detsad.fastrackids.kz,,https://instagram.com/fastrackids_almaty,,,https://wa.me/77770338885,,,,,https://t.me/fastrackids_nahimova,,,43.226027,76.934377,https://2gis.com/firm/9429940000833161,branch
Happy Baby,частный детский сад,Частные детские сады,"улица Земнухова, 87",,050028,Нижняя пятилетка м-н,Турксибский район,Алматы,,Алматы,Казахстан,Пн: 08:00-18:00; Вт: 08:00-18:00; Ср: 08:00-18:00; Чт: 08:00-18:00; Пт: 08:00-18:00,+05:00,4.1,27,87776154415,87775829492,,,,,,https://instagram.com/happy_baby_patyletka,,,https://wa.me/77776154415,https://wa.me/77775829492,,,,,,,43.344616,76.959933,https://2gis.com/firm/70000001024854521,branch
Алмаркс-А,,Частные детские сады; Центры раннего развития детей,"Алтай 1 микрорайон, 25Б",,050039,Маяк м-н,Турксибский район,Алматы,,Алматы,Казахстан,Пн: 08:00-18:30; Вт: 08:00-18:30; Ср: 08:00-18:30; Чт: 08:00-18:30; Пт: 08:00-18:30,+05:00,4.6,78,87000888081,,,,,,,https://instagram.com/smartbala_almaty,,,https://wa.me/77000888081,,,,,,,,43.343839,76.985889,https://2gis.com/firm/70000001032421815,branch
Талант,частный детский сад,Частные детские сады,"улица Митина, 23а",,050020,,Медеуский район,Алматы,,Алматы,Казахстан,Пн: 08:30-18:30; Вт: 08:30-18:30; Ср: 08:30-18:30; Чт: 08:30-18:30; Пт: 08:30-18:30,+05:00,5.0,29,87776693895,,,,,,,,,,https://wa.me/77776693895,,,,,,,,43.218431,76.968267,https://2gis.com/firm/70000001033927567,branch
НооГен,монтессори-центр,Частные детские сады; Центры раннего развития детей,"улица Найманбаева, 14",,050020,Кок-Тобе 2 м-н,Медеуский район,Алматы,,Алматы,Казахстан,Пн: 08:00-18:00; Вт: 08:00-18:00; Ср: 08:00-18:00; Чт: 08:00-18:00; Пт: 08:00-18:00,+05:00,3.9,14,,,,,,,,https://instagram.com/noogen_montessori_almaty,,,https://wa.me/77015013233,,,,,,,,43.219501,76.974216,https://2gis.com/firm/70000001042632933,branch
Britannica,английский детский сад,Частные детские сады,"улица Жамакаева, 138",,050040,Горный гигант м-н,Медеуский район,Алматы,,Алматы,Казахстан,Пн: 08:00-18:30; Вт: 08:00-18:30; Ср: 08:00-18:30; Чт: 08:00-18:30; Пт: 08:00-18:30,+05:00,5.0,15,87058152717,87470398189,,,,,,https://instagram.com/britannica_almaty,,,https://wa.me/77058152717,https://wa.me/77470398189,,,,,,,43.217562,76.946505,https://2gis.com/firm/70000001081332884,branch
Little & Big,частный детский сад,Частные детские сады,"улица Гоголя, 87Б",1 этаж,050004,,Алмалинский район,Алматы,,Алматы,Казахстан,Пн: 08:00-18:00; Вт: 08:00-18:00; Ср: 08:00-18:00; Чт: 08:00-18:00; Пт: 08:00-18:00,+05:00,4.5,96,87077573000,,,,,,,https://instagram.com/littlebigalmaty,,,,,,,,https://t.me/littlebig2021,,,43.260635,76.942645,https://2gis.com/firm/70000001055792908,branch
Балалар әлемі,частный детский сад,Частные детские сады,"улица Карагандинская, 9",,050011,,Турксибский район,Алматы,,Алматы,Казахстан,Пн: 07:30-18:00; Вт: 07:30-18:00; Ср: 07:30-18:00; Чт: 07:30-18:00; Пт: 07:30-18:00,+05:00,4.2,6,87012323602,,,,,,,https://instagram.com/balalar.alemi1,,,https://wa.me/77012323602,,,,,,,,43.31916,76.952394,https://2gis.com/firm/70000001034831617,branch
International Montessori Kinderhouse,частный детский сад,Частные детские сады,"улица Жамакаева, 247",,050040,Горный гигант м-н,Медеуский район,Алматы,,Алматы,Казахстан,Пн: 08:00-18:00; Вт: 08:00-18:00; Ср: 08:00-18:00; Чт: 08:00-18:00; Пт: 08:00-18:00,+05:00,4.2,7,87077188080,,,,,http://kinderhouse.kz,,https://instagram.com/kinderhouse.montessori,,,,,,,,,,,43.210811,76.956037,https://2gis.com/firm/70000001055587954,branch
Бал бұлақ,частный детский сад,Частные детские сады,"улица Абая, 3",,041611,,,,Талгарский район,Алматинская область,Казахстан,Пн: 08:00-18:00; Вт: 08:00-18:00; Ср: 08:00-18:00; Чт: 08:00-18:00; Пт: 08:00-18:00,+05:00,4.6,7,87052158811,87470828034,,,,,,https://instagram.com/balbulaq_balabaqsha,,,https://wa.me/77052158811,https://wa.me/77470828034,,,,,,,43.341301,77.045541,https://2gis.com/firm/70000001069087013,branch
Disneyland`s,частный детский сад,Частные детские сады,"улица Жургенова, 58",,050002,,Медеуский район,Алматы,,Алматы,Казахстан,Пн: 08:00-18:00; Вт: 08:00-18:00; Ср: 08:00-18:00; Чт: 08:00-18:00; Пт: 08:00-18:00,+05:00,4.4,66,87777770018,,,,,,,https://instagram.com/kindergarten_disneylands,,,https://wa.me/77777770018,,,,,https://t.me/+77777770018,,,43.267592,76.965229,https://2gis.com/firm/70000001036689327,branch
Montessori Samal,монтессори-центр,Частные детские сады,"улица Керей-Жанибек хандар, 9в",,050051,,Медеуский район,Алматы,,Алматы,Казахстан,Пн: 08:30-17:00; Вт: 08:30-17:00; Ср: 08:30-17:00; Чт: 08:30-17:00; Пт: 08:30-17:00,+05:00,3.6,45,87017147570 (единый номер: пн-пт 8:00-18:30),,,,,,,https://instagram.com/montessori_samal,https://facebook.com/montessori-samal,,https://wa.me/77017147570,https://wa.me/77017783669,,,,,,,43.234826,76.965281,https://2gis.com/firm/70000001040254716,branch
Kasym_kids,частный детский сад,Частные детские сады,"улица Келес, 4/1",1 этаж,050064,Думан м-н,Медеуский район,Алматы,,Алматы,Казахстан,Пн: 07:30-18:00; Вт: 07:30-18:00; Ср: 07:30-18:00; Чт: 07:30-18:00; Пт: 07:30-18:00,+05:00,3.7,3,87770942202,,,,,,,https://instagram.com/_kasym_kids_balabakshasy_,,,https://wa.me/77770942202,,,,,,,,43.281442,77.006433,https://2gis.com/firm/70000001084014084,branch
Alisha,частный детский сад,Частные детские сады,"Адольфа Янушкевича улица, 51",,050002,,Медеуский район,Алматы,,Алматы,Казахстан,Пн: 08:00-18:30; Вт: 08:00-18:30; Ср: 08:00-18:30; Чт: 08:00-18:30; Пт: 08:00-18:30,+05:00,4.3,23,87013455858 (единый номер: пн-пт 8:00-19:00),87071880106 (единый номер: пн-пт 8:00-19:00),,,,,,https://instagram.com/alisha_sad_,,,https://wa.me/77013455858,https://wa.me/77071880106,,,,,,,43.267923,76.963525,https://2gis.com/firm/70000001026953753,branch
Акку,частный детский сад,Частные детские сады,"улица Черемушки-2, 15а",,050048,Карасу м-н,Алатауский район,Алматы,,Алматы,Казахстан,Пн: 07:30-18:00; Вт: 07:30-18:00; Ср: 07:30-18:00; Чт: 07:30-18:00; Пт: 07:30-18:00,+05:00,4.7,9,87085937146,,,,,,,https://instagram.com/belii_lebed_akku,,,https://wa.me/77085937146,,,,,,,,43.32812,76.907844,https://2gis.com/firm/70000001019251920,branch
Львёнок,​частный детский сад,Частные детские сады,"улица Ильяса Жансугурова, 250",,050066,,Жетысуский район,Алматы,,Алматы,Казахстан,Пн: 08:00-18:00; Вт: 08:00-18:00; Ср: 08:00-18:00; Чт: 08:00-18:00; Пт: 08:00-18:00,+05:00,4.4,17,87753196247,,,,,,,https://instagram.com/sadik_li.venok,,,https://wa.me/77753196247,,,,,,,,43.304507,76.929749,https://2gis.com/firm/70000001074630912,branch
Aisha,частный детский сад,Частные детские сады,"улица Бирлик, 37",,,Карасу 2 м-н,,,Илийский район,Алматинская область,Казахстан,Пн: 07:30-18:00; Вт: 07:30-18:00; Ср: 07:30-18:00; Чт: 07:30-18:00; Пт: 07:30-18:00,+05:00,,,87025599400,87073165232,,,,,,,,,,,,,,,,,43.417193,77.039043,https://2gis.com/firm/70000001055500657,branch
Даниал,частный детский сад,Частные детские сады,"улица Куратова, 58",,050002,,Жетысуский район,Алматы,,Алматы,Казахстан,Пн: 08:00-18:00; Вт: 08:00-18:00; Ср: 08:00-18:00; Чт: 08:00-18:00; Пт: 08:00-18:00,+05:00,5.0,11,87016113231,,,,,,,https://instagram.com/det.sad_danial.almaty,,,https://wa.me/77016113231,,,,,,,,43.272572,76.963126,https://2gis.com/firm/70000001041047270,branch
Alpamys,частный детский сад,Частные детские сады,"микрорайон Айнабулак 3, 172е",,050014,Айнабулак 4 м-н,Жетысуский район,Алматы,,Алматы,Казахстан,Пн: 08:00-18:00; Вт: 08:00-18:00; Ср: 08:00-18:00; Чт: 08:00-18:00; Пт: 08:00-18:00,+05:00,2.9,11,87058893049,,,,,,,https://instagram.com/alpamys_ainabulak,,,https://wa.me/77058893049,,,,,,,,43.323174,76.915965,https://2gis.com/firm/70000001052478980,branch
Айбар Жулдыз,частный детский сад,Частные детские сады,"улица Алтын Емел, 2",,050064,Думан м-н,Медеуский район,Алматы,,Алматы,Казахстан,Пн: 07:00-19:00; Вт: 07:00-19:00; Ср: 07:00-19:00; Чт: 07:00-19:00; Пт: 07:00-19:00,+05:00,3.3,11,87084927687,,,,,,,https://instagram.com/aibaralmaty,,,https://wa.me/77084927687,,,,,,,,43.280451,76.996724,https://2gis.com/firm/70000001031975979,branch
Алтын Бала,частный детский сад,Частные детские сады,"улица Чехова, 37/1",,050011,,Турксибский район,Алматы,,Алматы,Казахстан,Пн: 08:00-19:00; Вт: 08:00-19:00; Ср: 08:00-19:00; Чт: 08:00-19:00; Пт: 08:00-19:00,+05:00,4.9,21,87074267142,,,,,,,https://instagram.com/altyn_bala_sadik,,,https://wa.me/77074267142,,,,,,,,43.331452,76.941694,https://2gis.com/firm/70000001031506897,branch
Улыбка,частный детский сад,Частные детские сады,"улица Сырмак, 44а",,050051,,Медеуский район,Алматы,,Алматы,Казахстан,Пн: 08:00-18:00; Вт: 08:00-18:00; Ср: 08:00-18:00; Чт: 08:00-18:00; Пт: 08:00-18:00,+05:00,3.8,8,87017150243,,,,,http://instasale.kz/sadikulibka,,https://instagram.com/ulibka.u,,,https://wa.me/77017150243,,,,,,,,43.227254,76.964773,https://2gis.com/firm/70000001050767881,branch
Волшебный Замок,частный детский сад,Частные детские сады; Центры раннего развития детей,"улица Бартольда, 52",,050028,Нижняя пятилетка м-н,Турксибский район,Алматы,,Алматы,Казахстан,Пн: 07:00-19:00; Вт: 07:00-19:00; Ср: 07:00-19:00; Чт: 07:00-19:00; Пт: 07:00-19:00,+05:00,4.7,50,87077575878,,,,,,,https://instagram.com/magic_castle_ala,,,https://wa.me/77077575878,,,,,,,,43.35174,76.960157,https://2gis.com/firm/70000001033348420,branch
Планета Детства,,Частные детские сады; Центры раннего развития детей,"улица Муканова, 233",,050026,,Алмалинский район,Алматы,,Алматы,Казахстан,Пн: 07:30-18:30; Вт: 07:30-18:30; Ср: 07:30-18:30; Чт: 07:30-18:30; Пт: 07:30-18:30,+05:00,4.3,60,87003339040,,,,,,,https://instagram.com/akademiya_detstva_almaty,,,https://wa.me/77715069785,https://wa.me/77003339040,,,,,,,43.248063,76.915127,https://2gis.com/firm/70000001034243391,branch
AcademKids,частный детский сад,Частные детские сады; Логопед; Центры раннего развития детей,"улица Жибек Жолы, 4а",,041626,,,,Талгарский район,Алматинская область,Казахстан,Пн: 08:00-18:00; Вт: 08:00-18:00; Ср: 08:00-18:00; Чт: 08:00-18:00; Пт: 08:00-18:00 (по предварительной записи),+05:00,5.0,5,87710006003,,,,,,,https://instagram.com/_academkids_,,,https://wa.me/77710006003,,,,,,,,43.303037,77.063783,https://2gis.com/firm/70000001063228141,branch
Зердеш,элитный детский сад,Частные детские сады,"улица Жарокова, 356",,050060,,Бостандыкский район,Алматы,,Алматы,Казахстан,Пн: 07:30-19:00; Вт: 07:30-19:00; Ср: 07:30-19:00; Чт: 07:30-19:00; Пт: 07:30-19:00,+05:00,4.5,44,87477418141,,,,,,,https://instagram.com/zerdeshbaksha,,,https://wa.me/77711111142,,,,,,,,43.202601,76.910623,https://2gis.com/firm/70000001023447939,branch
Аружан,частный детский сад,Частные детские сады,"улица Карасай батыра, 7",,041626,Айсулу 2 м-н,,,Талгарский район,Алматинская область,Казахстан,Пн: 08:00-18:00; Вт: 08:00-18:00; Ср: 08:00-18:00; Чт: 08:00-18:00; Пт: 08:00-18:00,+05:00,4.2,23,87771627766,87082117991,,,,,,https://instagram.com/ds_aruzhan,,,https://wa.me/77082117991,https://wa.me/77771627766,,,,,,,43.312544,77.070993,https://2gis.com/firm/70000001033530793,branch
Алакай,частный детский сад,Частные детские сады,"улица Бердыгулова, 9/1",,041626,,,,Талгарский район,Алматинская область,Казахстан,Пн: 08:00-18:30; Вт: 08:00-18:30; Ср: 08:00-18:30; Чт: 08:00-18:30; Пт: 08:00-18:30,+05:00,4.0,8,87024573292,87273055539,,,,,,,,,https://wa.me/77024573292,,,,,,,,43.317294,77.056288,https://2gis.com/firm/9429940001668645,branch
Болашак.Kz,частный детский сад,Частные детские сады,"улица Шукшина, 87",1 этаж,050040,Горный гигант м-н,Медеуский район,Алматы,,Алматы,Казахстан,Пн: 08:00-19:00; Вт: 08:00-19:00; Ср: 08:00-19:00; Чт: 08:00-19:00; Пт: 08:00-19:00,+05:00,4.2,28,87752401761,87272609017,87051009087,,,,,https://instagram.com/bolashaq_sadik,https://facebook.com/bolashak2019,,https://wa.me/77051009087,https://wa.me/77752401761,,,,,,,43.21817,76.939092,https://2gis.com/firm/70000001025484629,branch
Ахляк,частный детский сад,Частные детские сады,"улица Лебедева, 47",,050060,,Бостандыкский район,Алматы,,Алматы,Казахстан,Пн: 08:00-19:00; Вт: 08:00-19:00; Ср: 08:00-19:00; Чт: 08:00-19:00; Пт: 08:00-19:00,+05:00,5.0,8,87074541833,,,,,,,https://instagram.com/ahlyak_balabaqsha,,,https://wa.me/77074541833,,,,,,,,43.226551,76.884353,https://2gis.com/firm/70000001075900593,branch
Ясли сад Wunderkinds,​частный детский сад,Частные детские сады,"улица Бальзака, 12а",,050040,,Бостандыкский район,Алматы,,Алматы,Казахстан,Пн: 08:00-18:30; Вт: 08:00-18:30; Ср: 08:00-18:30; Чт: 08:00-18:30; Пт: 08:00-18:30,+05:00,4.8,31,87070492258,87012222552,,,,,,https://instagram.com/wunderkids.almaty,,,https://wa.me/77070492258,https://wa.me/77012222552,,,,,,,43.224555,76.934154,https://2gis.com/firm/70000001080091100,branch
Апельсиновый берег-Гоша,частный детский сад,Частные детские сады,"Мамыр-4 микрорайон, 83в",,050036,Мамыр-4 м-н,Ауэзовский район,Алматы,,Алматы,Казахстан,Пн: 07:30-19:00; Вт: 07:30-19:00; Ср: 07:30-19:00; Чт: 07:30-19:00; Пт: 07:30-19:00,+05:00,4.7,22,87753446974,87071017117,,,,,,https://instagram.com/abereg_gosha,,,https://wa.me/77753446974,https://wa.me/77071017117,,,,,,,43.217307,76.849058,https://2gis.com/firm/9429940001001490,branch
Изумрудный город,частный детский сад,Частные детские сады,"улица Фёдорова, 12в/1",,050034,,Жетысуский район,Алматы,,Алматы,Казахстан,"Пн: 08:00-13:00, 14:00-18:30; Вт: 08:00-13:00, 14:00-18:30; Ср: 08:00-13:00, 14:00-18:30; Чт: 08:00-13:00, 14:00-18:30; Пт: 08:00-13:00, 14:00-18:30",+05:00,4.8,67,87076530312,,,,,,,https://instagram.com/izumrudnyi_gorod_sadik,,,https://wa.me/77076530312,,,,,,,,43.268198,76.895676,https://2gis.com/firm/70000001062741292,branch
Zerek Bala,частный детский сад,Частные детские сады,"улица Жарокова, 320",,050060,,Бостандыкский район,Алматы,,Алматы,Казахстан,Пн: 08:00-19:00; Вт: 08:00-19:00; Ср: 08:00-19:00; Чт: 08:00-19:00; Пт: 08:00-19:00,+05:00,,,87473255721,,,,,,,https://instagram.com/zerek_bala_baqsha,,,https://wa.me/77473255721,,,,,,,,43.20204,76.906046,https://2gis.com/firm/70000001090375838,branch
Bal-balam,частный детский сад,Частные детские сады,"улица Каныша Сатпаева, 133/6",,050046,,Бостандыкский район,Алматы,,Алматы,Казахстан,Пн: 08:00-19:00; Вт: 08:00-19:00; Ср: 08:00-19:00; Чт: 08:00-19:00; Пт: 08:00-19:00,+05:00,,,87775903887,,,,,,,https://instagram.com/balbalam_jazz,,,https://wa.me/77775903887,,,,,,,,43.233986,76.872744,https://2gis.com/firm/70000001089865894,branch
Bala Qyran,частный детский сад,Частные детские сады,"улица Нурлы Байкенова, 18",,050045,Нур Алатау м-н,Бостандыкский район,Алматы,,Алматы,Казахстан,Пн: 08:00-18:00; Вт: 08:00-18:00; Ср: 08:00-18:00; Чт: 08:00-18:00; Пт: 08:00-18:00,+05:00,4.3,12,87074887311,,,,,,,https://instagram.com/balaqyranofficial,,,https://wa.me/77074887311,,,,,,,,43.182387,76.902731,https://2gis.com/firm/70000001033884071,branch
Baby Land,частный детский сад,Частные детские сады,"улица Ахметова, 10а",,050052,Таугуль-3 м-н,Ауэзовский район,Алматы,,Алматы,Казахстан,Пн: 08:00-19:00; Вт: 08:00-19:00; Ср: 08:00-19:00; Чт: 08:00-19:00; Пт: 08:00-19:00,+05:00,4.5,19,87017884933,,,,,http://baby-land.kz,,https://instagram.com/detskiysad_babyland,,,https://wa.me/77017884933,,,,,,,,43.206563,76.85956,https://2gis.com/firm/70000001020771029,branch
Balapanda,частный детский сад,Частные детские сады,"улица Адилова, 11",,050052,Таугуль-3 м-н,Ауэзовский район,Алматы,,Алматы,Казахстан,Пн: 07:30-18:30; Вт: 07:30-18:30; Ср: 07:30-18:30; Чт: 07:30-18:30; Пт: 07:30-18:30,+05:00,4.9,17,87751474999,,,,,,,https://instagram.com/balapanda.kz,,,https://wa.me/77751474999,,,,,,,,43.20649,76.861468,https://2gis.com/firm/70000001032408505,branch
Kiwi kids,частный детский сад,Частные детские сады,"улица Арычная, 3",,050043,СТ Ветеран,Ауэзовский район,Алматы,,Алматы,Казахстан,Пн: 07:00-19:00; Вт: 07:00-19:00; Ср: 07:00-19:00; Чт: 07:00-19:00; Пт: 07:00-19:00,+05:00,5.0,9,87071688168,,,,,,,https://instagram.com/kiwi_kids1,,,https://wa.me/77071688168,,,,,,,,43.202083,76.866683,https://2gis.com/firm/70000001066967525,branch
Бала Land,частный детский сад,Частные детские сады,"улица Прокофьева, 173",,050005,,Алмалинский район,Алматы,,Алматы,Казахстан,Пн: 08:00-18:00; Вт: 08:00-18:00; Ср: 08:00-18:00; Чт: 08:00-18:00; Пт: 08:00-18:00,+05:00,3.6,8,87478142141,,,,,,,,,,https://wa.me/77478142141,,,,,,,,43.241601,76.87545,https://2gis.com/firm/70000001054006259,branch
Білім балабақшасы,частный детский сад,Частные детские сады,"Мамыр-4 микрорайон, 66",,050036,Мамыр-4 м-н,Ауэзовский район,Алматы,,Алматы,Казахстан,Пн: 08:00-19:00; Вт: 08:00-19:00; Ср: 08:00-19:00; Чт: 08:00-19:00; Пт: 08:00-19:00,+05:00,3.5,23,87474016138,,,,,,,https://instagram.com/bilim_balabakshasy,,,https://wa.me/77076039493,,,,,,,,43.216702,76.849856,https://2gis.com/firm/70000001036197010,branch
Disneyland,ясли-сад,Частные детские сады,"улица Култобе, 16",,,Рахат (Наурызбайский район) м-н,Наурызбайский район,Алматы,,Алматы,Казахстан,Пн: 08:00-18:30; Вт: 08:00-18:30; Ср: 08:00-18:30; Чт: 08:00-18:30; Пт: 08:00-18:30,+05:00,,,87073511656,,,,,,,,,,https://wa.me/77073511656,,,,,,,,43.185558,76.866072,https://2gis.com/firm/70000001084048180,branch
Балашым,частный детский сад,Частные детские сады,"улица Отрарская, 15",,050061,,Алатауский район,Алматы,,Алматы,Казахстан,Пн: 08:00-18:30; Вт: 08:00-18:30; Ср: 08:00-18:30; Чт: 08:00-18:30; Пт: 08:00-18:30,+05:00,4.7,62,87089742931,,,,,,,https://instagram.com/sadbalashym,,,https://wa.me/77089742931,,,,,,,,43.258877,76.857345,https://2gis.com/firm/70000001033867030,branch
Сары Балапан,частный детский сад,Частные детские сады,"улица Тажибаева, 46",,050006,Калкаман-2 м-н,Наурызбайский район,Алматы,,Алматы,Казахстан,Пн: 08:00-18:00; Вт: 08:00-18:00; Ср: 08:00-18:00; Чт: 08:00-18:00; Пт: 08:00-18:00,+05:00,4.0,4,87076155683,,,,,,,,,,https://wa.me/77076155683,,,,,,,,43.232157,76.809125,https://2gis.com/firm/70000001068721107,branch
Smart Kids,частный детский сад,Частные детские сады,"улица Айтиева, 41",,050026,,Алмалинский район,Алматы,,Алматы,Казахстан,Пн: 08:00-19:00; Вт: 08:00-19:00; Ср: 08:00-19:00; Чт: 08:00-19:00; Пт: 08:00-19:00,+05:00,4.2,29,87053358751,87017999828,87273759040,,,,,https://instagram.com/smart_kids.almaty,https://facebook.com/almaty.smart.kids,,https://wa.me/77053358751,https://wa.me/77017999828,,,,,,,43.247394,76.904953,https://2gis.com/firm/70000001038998978,branch
Новое Поколение,детский образовательный центр,Частные детские сады; Центры раннего развития детей; Логопед,"улица Афцинао, 18",,050006,Мамыр м-н,Наурызбайский район,Алматы,,Алматы,Казахстан,Пн: 08:00-18:30; Вт: 08:00-18:30; Ср: 08:00-18:30; Чт: 08:00-18:30; Пт: 08:00-18:30,+05:00,5.0,4,87773713688,87073500804,,,,,,,,,https://wa.me/77773713688,,,,,,,,43.206789,76.834245,https://2gis.com/firm/70000001063610447,branch
Тамосик,частный детский сад,Частные детские сады,"улица Какимбека Салыкова, 140/1",,050045,Нур Алатау м-н,Бостандыкский район,Алматы,,Алматы,Казахстан,Пн: 08:00-18:00; Вт: 08:00-18:00; Ср: 08:00-18:00; Чт: 08:00-18:00; Пт: 08:00-18:00,+05:00,4.6,39,87470949596,,,,,http://tamos-education.kz,,https://instagram.com/tamos_education,https://facebook.com/TamosEducation,,https://wa.me/77002461980,,,,,,,,43.169348,76.910644,https://2gis.com/firm/70000001026507404,branch
Alash kids,​частный детский сад,Частные детские сады,"проспект Аль-Фараби, 75в/4",,050060,,Бостандыкский район,Алматы,,Алматы,Казахстан,Пн: 07:00-19:00; Вт: 07:00-19:00; Ср: 07:00-19:00; Чт: 07:00-19:00; Пт: 07:00-19:00,+05:00,5.0,15,87719111919,87023179777,,,,,,https://instagram.com/alashkids2023,,,https://wa.me/77023179777,https://wa.me/77719111919,,,,,,,43.210813,76.913126,https://2gis.com/firm/70000001080285506,branch
Кулагер,частный детский сад,Частные детские сады,"микрорайон Казахфильм, 45",,050023,Казахфильм м-н,Бостандыкский район,Алматы,,Алматы,Казахстан,Пн: 08:00-19:00; Вт: 08:00-19:00; Ср: 08:00-19:00; Чт: 08:00-19:00; Пт: 08:00-19:00,+05:00,4.3,21,87272696224,87079703181,,,,http://kulager-yaslisad.kz/,,https://instagram.com/kulager_kids,,,https://wa.me/77079703181,,,,,,,,43.197391,76.910508,https://2gis.com/firm/9429940000797238,branch
Білім Мекені,​частный детский сад,Частные детские сады,"улица Нурпеисова, 26",,050038,Акбулак м-н,Алатауский район,Алматы,,Алматы,Казахстан,Пн: 08:00-18:00; Вт: 08:00-18:00; Ср: 08:00-18:00; Чт: 08:00-18:00; Пт: 08:00-18:00,+05:00,5.0,15,87079332937,87478046822,,,,,,https://instagram.com/bilim__mekeni,,,https://wa.me/77079332937,https://wa.me/77478046822,,,,,,,43.245832,76.822493,https://2gis.com/firm/70000001081191933,branch
Бала Paradise,частный детский сад,Частные детские сады,"улица Ходжанова, 59/4",,050060,,Бостандыкский район,Алматы,,Алматы,Казахстан,Пн: 08:00-18:30; Вт: 08:00-18:30; Ср: 08:00-18:30; Чт: 08:00-18:30; Пт: 08:00-18:30; Сб: 09:00-17:00,+05:00,4.8,20,87785890555,,,,,,,https://instagram.com/balaparadaise,,,https://wa.me/77785890555,,,,,,,,43.209824,76.910436,https://2gis.com/firm/70000001077841380,branch
