Наименование,Описание,Рубрики,Адрес,Комментарий к адресу,Почтовый индекс,Микрорайон,Район,Город,Округ,Регион,Страна,Часы работы,Часовой пояс,Рейтинг,Количество отзывов,Телефон 1,Телефон 2,Телефон 3,E-mail 1,E-mail 2,Веб-сайт,Instagram,Twitter,Facebook,ВКонтакте,WhatsApp 1,WhatsApp 2,WhatsApp 3,Viber,Telegram,YouTube,Skype,Широта,Долгота,2GIS URL,Тип
Nova school,частная школа,Школы; Помощь в обучении,"улица Нурпеисова, 229",,050006,Калкаман-2 м-н,Наурызбайский район,Алматы,,Алматы,Казахстан,Пн: 08:00-18:00; Вт: 08:00-18:00; Ср: 08:00-18:00; Чт: 08:00-18:00; Пт: 08:00-18:00,+05:00,4.5,24,87051758005,,,,,,https://instagram.com/school_nova,,,,https://wa.me/77051758005,,,,,,,43.206355,76.825229,https://2gis.com/firm/70000001062284554,branch
Abyroi School Almaty,частная школа ,Школы,"микрорайон Дарабоз, 85/1",,050058,Акбулак м-н,Алатауский район,Алматы,,Алматы,Казахстан,Пн: 09:00-17:00; Вт: 09:00-17:00; Ср: 09:00-17:00; Чт: 09:00-17:00; Пт: 09:00-17:00,+05:00,4.2,13,87085000085,,,abyroi.school.edu@gmail.com,,,https://instagram.com/abyroischool_almaty,,,,https://wa.me/77085000085,,,,,,,43.270783,76.821043,https://2gis.com/firm/70000001077910465,branch
Сенім,частная школа,Школы; Частные детские сады,"улица Зеина Шашкина, 32а",,050040,,Медеуский район,Алматы,,Алматы,Казахстан,Пн: 08:00-17:00; Вт: 08:00-17:00; Ср: 08:00-17:00; Чт: 08:00-17:00; Пт: 08:00-17:00,+05:00,4.4,152,87472905894,,,senimschool@mail.ru,,,https://instagram.com/senimschool_almaty,,https://facebook.com/senimschool.kz,,https://wa.me/77472905894,,,,,,,43.222213,76.937692,https://2gis.com/firm/9429940000800292,branch
AMS Poznai-ka,частная школа,Школы,"улица Тайманова, 169",,050059,Горный гигант м-н,Медеуский район,Алматы,,Алматы,Казахстан,Пн: 08:30-17:00; Вт: 08:30-17:00; Ср: 08:30-17:00; Чт: 08:30-17:00; Пт: 08:30-17:00,+05:00,5.0,6,87772143692,87772698537,,,,http://ams-poznai-ka.kz,https://instagram.com/almaty_montessori_school,,https://facebook.com/ALMATY.MONTESSORI.SCHOOL,,https://wa.me/77772143692,,,,,,,43.210055,76.963691,https://2gis.com/firm/70000001061326156,branch
Prime School,частная школа,Школы,"Сапаргали Бегалина улица, 148/1а",,050051,,Медеуский район,Алматы,,Алматы,Казахстан,Пн: 09:00-18:00; Вт: 09:00-18:00; Ср: 09:00-18:00; Чт: 09:00-18:00; Пт: 09:00-18:00,+05:00,4.7,52,87778530030,,,hello@prime-school.kz,hello.prime.school@gmail.com,http://prime-school.edu.kz,https://instagram.com/almaty.prime,,https://facebook.com/Prime-School-100482132165242,,https://wa.me/77778530030,,,,,,,43.241771,76.965468,https://2gis.com/firm/70000001049969207,branch
Zerdesh мектебі,частная казахская школа,Школы,"улица Жандосова, 200",,050052,Таугуль-3 м-н,Ауэзовский район,Алматы,,Алматы,Казахстан,Пн: 08:00-16:30; Вт: 08:00-16:30; Ср: 08:00-16:30; Чт: 08:00-16:30; Пт: 08:00-16:30,+05:00,4.7,40,87015370007,87769111111,,shkolazerdesh@mail.ru,,,https://instagram.com/zerdesh.mektebi,,,,https://wa.me/77015370007,https://wa.me/77769111111,,,https://t.me/+77769111111,,,43.206574,76.858649,https://2gis.com/firm/70000001077154194,branch
Квант,школа-лицей,Школы,"улица Жумабаева, 2д",,,,,,Илийский район,Алматинская область,Казахстан,Пн: 08:00-17:00; Вт: 08:00-17:00; Ср: 08:00-17:00; Чт: 08:00-17:00; Пт: 08:00-17:00,+05:00,4.6,27,87019827872,87477209010,87017203953,shkola-licei-kvant@mail.ru,,http://kvant.com.kz,https://instagram.com/school_licei_kvant,,,,https://wa.me/77477209010,https://wa.me/77017203953,,,,,,43.470407,77.037577,https://2gis.com/firm/70000001039755580,branch
Арман,частная школа ,Школы,"улица Радостовца, 87",,050009,,Алмалинский район,Алматы,,Алматы,Казахстан,Пн: 08:30-17:00; Вт: 08:30-17:00; Ср: 08:30-17:00; Чт: 08:30-17:00; Пт: 08:30-17:00,+05:00,4.8,42,87273944053,87273943730,,uvk-arman@yandex.ru,,,https://instagram.com/uvk.arman,,,,https://wa.me/77015295384,,,,,,,43.24134,76.891055,https://2gis.com/firm/9429940000792902,branch
Millennium School,частная школа,Школы,"улица Волочаевская, 357/1",,050019,,Турксибский район,Алматы,,Алматы,Казахстан,Пн: 10:00-18:00; Вт: 10:00-18:00; Ср: 10:00-18:00; Чт: 10:00-18:00; Пт: 10:00-18:00,+05:00,4.7,144,87076990901,87076990902,,,,http://millenniumschool.kz/,https://instagram.com/millenniumschool.kz,,https://facebook.com/Millenniumschoolkz,,https://wa.me/77076990902,,,,,https://youtube.com/channel/UC23TDO9Lf9eWbnN_FFCG8-w,,43.29518,76.971984,https://2gis.com/firm/70000001062414317,branch
Koula,​частная школа,Школы,"улица Утегенова, 19",,050045,Нур Алатау м-н,Бостандыкский район,Алматы,,Алматы,Казахстан,Пн: 08:30-17:00; Вт: 08:30-17:00; Ср: 08:30-17:00; Чт: 08:30-17:00; Пт: 08:30-17:00,+05:00,,,87066407888,87064107888,,koula.school@gmail.com,,http://koula.kz,,,,,https://wa.me/77064107888,https://wa.me/77066407888,,,,,,43.178269,76.896526,https://2gis.com/firm/70000001082613075,branch
Talim school,частная школа,Школы,"улица Саттилик, 10",,,Акжар м-н,Наурызбайский район,Алматы,,Алматы,Казахстан,Пн: 08:00-18:00; Вт: 08:00-18:00; Ср: 08:00-18:00; Чт: 08:00-18:00; Пт: 08:00-18:00,+05:00,5.0,36,87077850404,,,talim_school@mail.ru,,http://talim-school.kz,https://instagram.com/talim_school.kz,,,,https://wa.me/77077850404,,,,,,,43.202047,76.788298,https://2gis.com/firm/70000001077019044,branch
ҮРКЕР мектебі,частная казахская школа,Школы; Спортивные секции; Обучение танцам; Курсы творчества и рукоделия для взрослых; Детские / подростковые клубы,"улица Тулебаева, 4а",,050016,,Медеуский район,Алматы,,Алматы,Казахстан,Пн: 08:00-17:00; Вт: 08:00-17:00; Ср: 08:00-17:00; Чт: 08:00-17:00; Пт: 08:00-17:00,+05:00,4.3,28,87022430173,,,urkermektebi@gmail.com,,http://edu-kz.com/mektep/bastauysh-mektep/urker,https://instagram.com/urkermektebi,,https://facebook.com/urkermektebi,,https://wa.me/77022430173,,,,https://t.me/702-243-01-73,,,43.269401,76.946637,https://2gis.com/firm/70000001045126923,branch
Global Education,частная школа,Школы,"улица Жамакаева, 258/16",,050044,,Медеуский район,Алматы,,Алматы,Казахстан,Пн: 09:00-14:00; Вт: 09:00-14:00; Ср: 09:00-14:00; Чт: 09:00-14:00; Пт: 09:00-14:00,+05:00,4.9,41,87026786072,87273117045,87017999838,globaleducation_kz@mail.ru,,http://70000001030211714.2gis.biz,https://instagram.com/global_education.kz,,,,https://wa.me/77017999838,,,,,,,43.209419,76.944847,https://2gis.com/firm/70000001030211715,branch
Wunder academy,частная общеобразовательная школа,Школы; Детские / подростковые клубы; Центры раннего развития детей; Детские лагеря,"улица Кыз Жибек, 77",1-3 этаж,050020,Кок-Тобе 2 м-н,Медеуский район,Алматы,,Алматы,Казахстан,Пн: 08:00-18:00; Вт: 08:00-18:00; Ср: 08:00-18:00; Чт: 08:00-18:00; Пт: 08:00-18:00,+05:00,4.1,30,87084809988,,,,,http://wunderacademy.kz/?&utm_source=2gis,https://instagram.com/wunderacademy.kz,,https://facebook.com/wunderacademy.kz,,https://wa.me/77084809988,,,,https://t.me/+77084809988,,,43.218043,76.97258,https://2gis.com/firm/70000001054446544,branch
Өркен мектебі,частная школа,Школы,"микрорайон Мамыр 1, 21/3",,050036,Мамыр-1 м-н,Ауэзовский район,Алматы,,Алматы,Казахстан,Пн: 08:00-18:00; Вт: 08:00-18:00; Ср: 08:00-18:00; Чт: 08:00-18:00; Пт: 08:00-18:00,+05:00,4.6,75,87086889162,,,info.orken.mektebi@gmail.com,,,https://instagram.com/orken.mektebi,,,,https://wa.me/77086889162,,,,,,,43.211074,76.847597,https://2gis.com/firm/70000001054709337,branch
NGS,школа нового поколения,Школы,"улица Жангир хана, 4",,,Ерменсай м-н,Бостандыкский район,Алматы,,Алматы,Казахстан,Пн: 08:00-20:00; Вт: 08:00-20:00; Ср: 08:00-20:00; Чт: 08:00-20:00; Пт: 08:00-20:00,+05:00,3.4,90,87087045544,,,office@ngs-school.net,,http://Ngs-school.kz,https://instagram.com/ngs_almaty,,https://facebook.com/NGSalmaty,,,,,,,,,43.19107,76.92126,https://2gis.com/firm/70000001029881109,branch
ASPM,физико-математическая школа,Школы,"улица Манаса, 34",,050040,,Бостандыкский район,Алматы,,Алматы,Казахстан,Пн: 08:00-17:00; Вт: 08:00-17:00; Ср: 08:00-17:00; Чт: 08:00-17:00; Пт: 08:00-17:00,+05:00,3.5,31,87770106014,,,aspmalmaty@gmail.com,,http://aspm.kz,https://instagram.com/aspm_school,,,,https://wa.me/77770106014,,,,,,,43.234507,76.909858,https://2gis.com/firm/70000001062456078,branch
FasTracKids,образовательный центр,Школы; Частные детские сады; Дневные детские лагеря,"микрорайон Нуркент, 7",А блок; 1 этаж,050038,Нуркент м-н,Алатауский район,Алматы,,Алматы,Казахстан,Пн: 08:00-17:30; Вт: 08:00-17:30; Ср: 08:00-17:30; Чт: 08:00-17:30; Пт: 08:00-17:30,+05:00,4.4,71,87064298040,87072562219,87053334412,,,,https://instagram.com/fastrackids_arena,,,,https://wa.me/77064298040,https://wa.me/77053334412,,,,,,43.26427,76.818089,https://2gis.com/firm/70000001033205605,branch
Vector,частная школа,Школы; Начальные школы-детские сады / Прогимназии; Дневные детские лагеря,"улица Исаева, 2",,050052,Таугуль-3 м-н,Ауэзовский район,Алматы,,Алматы,Казахстан,Пн: 08:00-19:00; Вт: 08:00-19:00; Ср: 08:00-19:00; Чт: 08:00-19:00; Пт: 08:00-19:00,+05:00,5.0,63,87019823638,,,privateschool.vector@gmail.com,,,https://instagram.com/vector__school,,https://facebook.com/profile.php?id=100084535351607,,https://wa.me/77077777502,,,,,,,43.197122,76.862903,https://2gis.com/firm/70000001061072717,branch
JOS,финансовый лицей,Школы,"проспект Сейфуллина, 50",,050011,,Турксибский район,Алматы,,Алматы,Казахстан,"Пн: 08:30-13:00, 14:00-17:00; Вт: 08:30-13:00, 14:00-17:00; Ср: 08:30-13:00, 14:00-17:00; Чт: 08:30-13:00, 14:00-17:00; Пт: 08:30-13:00, 14:00-17:00",+05:00,4.7,69,87714441251,,,,,,https://instagram.com/jos_school_almaty,,,,,,,,,,,43.323992,76.940539,https://2gis.com/firm/70000001054713044,branch
Apple Tree International School,английская международная школа-детский сад,Школы; Частные детские сады; Начальные школы-детские сады / Прогимназии,"улица Зеина Шашкина, 3",1 этаж,050040,,Бостандыкский район,Алматы,,Алматы,Казахстан,Пн: 08:00-16:45; Вт: 08:00-16:45; Ср: 08:00-16:45; Чт: 08:00-16:45; Пт: 08:00-16:45,+05:00,4.3,7,87015129854,,,info@appletreeschool.kz,,,https://instagram.com/atis_almaty,,https://facebook.com/appletree.almaty,,https://wa.me/77015129854,,,,,,,43.224661,76.928836,https://2gis.com/firm/9429940000802173,branch
NGS High School,,Школы,"улица Кольсай, 27",,,Ерменсай м-н,Бостандыкский район,Алматы,,Алматы,Казахстан,Пн: 08:00-20:00; Вт: 08:00-20:00; Ср: 08:00-20:00; Чт: 08:00-20:00; Пт: 08:00-20:00,+05:00,4.3,8,87272250505 (приемная),87087045544 (приемная комиссия),,,,,https://instagram.com/ngs_highschool,,,,,,,,,,,43.192614,76.92008,https://2gis.com/firm/70000001082662772,branch
Abai International School,частная школа,Школы,"улица Камбар батыра, 30/4",,,Курамыс м-н,Наурызбайский район,Алматы,,Алматы,Казахстан,Пн: 08:00-18:00; Вт: 08:00-18:00; Ср: 08:00-18:00; Чт: 08:00-18:00; Пт: 08:00-18:00; Сб: 08:00-18:00; Вс: 08:00-18:00,+05:00,4.8,53,87000999378,,,,,http://70000001075179412.2gis.biz,https://instagram.com/abai_international_school,,,,https://wa.me/77000999378,,,,,,,43.183651,76.84442,https://2gis.com/firm/70000001075179413,branch
Pifagor high school ,частная школа,Школы; Помощь в обучении; Языковые школы,"улица Жандосова, 61а",,050036,9-й м-н,Ауэзовский район,Алматы,,Алматы,Казахстан,Пн: 10:00-18:00; Вт: 10:00-18:00; Ср: 10:00-18:00; Чт: 10:00-18:00; Пт: 10:00-18:00,+05:00,5.0,17,87787693030,,,info@pifagorschool.kz,,http://pifagor.kz,https://instagram.com/pifagorschool.kz,,https://facebook.com/pifagor.kz,https://vk.com/pifagorkz,https://wa.me/77066384727,https://wa.me/77068048284,,,https://t.me/pifagorkz,https://youtube.com/c/Pifagorkzvideos,,43.212919,76.868479,https://2gis.com/firm/70000001089067412,branch
Общеобразовательная школа №127,,Школы,"улица Токтабаева, 64",,050042,Таугуль м-н,Ауэзовский район,Алматы,,Алматы,Казахстан,Пн: 07:00-20:30; Вт: 07:00-20:30; Ср: 07:00-20:30; Чт: 07:00-20:30; Пт: 07:00-20:30,+05:00,3.8,72,87272495573,87272334765,,,,http://127.alschool.kz/,,,,,,,,,,https://youtube.com/@127schoolalmaty5,,43.210327,76.874619,https://2gis.com/firm/9429940000798769,branch
Байтерек,частная школа,Школы,"улица Торайгырова, 21/1",,050043,,Бостандыкский район,Алматы,,Алматы,Казахстан,Пн: 08:00-17:00; Вт: 08:00-17:00; Ср: 08:00-17:00; Чт: 08:00-17:00; Пт: 08:00-17:00,+05:00,4.5,53,87077517162,87070011034,87076031072,,,http://baiterek.academy,https://instagram.com/baiterek.school,,https://facebook.com/isbaiterek,https://vk.com/isbaiterek,https://wa.me/77077517168,https://wa.me/77077517162,https://wa.me/77077517167,,,,,43.202882,76.872664,https://2gis.com/firm/70000001068030513,branch
Общеобразовательная школа №72,,Школы,"улица Сулейменова, 16",,050042,Таугуль-1 м-н,Ауэзовский район,Алматы,,Алматы,Казахстан,"Пн: 08:00-13:00, 14:00-18:00; Вт: 08:00-13:00, 14:00-18:00; Ср: 08:00-13:00, 14:00-18:00; Чт: 08:00-13:00, 14:00-18:00; Пт: 08:00-13:00, 14:00-18:00",+05:00,2.9,44,87273023235 (единая справочная - пн-сб 8:30-18:00),,,,,,,,,,,,,,,,,43.214809,76.877788,https://2gis.com/firm/9429940000798827,branch
КAU,школа,Школы,"улица Торайгырова, 43",,050043,,Бостандыкский район,Алматы,,Алматы,Казахстан,"Пн: 08:30-13:00, 14:00-17:30; Вт: 08:30-13:00, 14:00-17:30; Ср: 08:30-13:00, 14:00-17:30; Чт: 08:30-13:00, 14:00-17:30; Пт: 08:30-13:00, 14:00-17:30; Сб: 08:30-13:00, 14:00-17:30",+05:00,4.0,114,87272208128,87012072255,,,,http://school.kau.kz/ru/о-школе,https://instagram.com/kau.school,,,,https://wa.me/77012072255,,,,,https://youtube.com/@kauschool9648,,43.202238,76.870415,https://2gis.com/firm/9429940001142408,branch
Общеобразовательная школа №116,,Школы,"8-й микрорайон, 46",,050006,8 м-н,Ауэзовский район,Алматы,,Алматы,Казахстан,"Пн: 08:00-13:00, 14:00-18:00; Вт: 08:00-13:00, 14:00-18:00; Ср: 08:00-13:00, 14:00-18:00; Чт: 08:00-13:00, 14:00-18:00; Пт: 08:00-13:00, 14:00-18:00",+05:00,3.9,71,87272490791 (приемная),87272498494,,,,,https://instagram.com/school_116_almaty,,,,,,,,,,,43.225531,76.868788,https://2gis.com/firm/9429940000798763,branch
PhysTech school Almaty,частная школа,Школы,"улица Ладыгина, 35а",Вход с ул. Ладыгина,050042,,Ауэзовский район,Алматы,,Алматы,Казахстан,"Пн: 09:00-13:00, 14:00-18:00; Вт: 09:00-13:00, 14:00-18:00; Ср: 09:00-13:00, 14:00-18:00; Чт: 09:00-13:00, 14:00-18:00; Пт: 09:00-13:00, 14:00-18:00; Сб: 09:00-13:00, 14:00-18:00",+05:00,3.9,42,87081001010,87081011010,,,,,https://instagram.com/fiztex.kz,,,,,,,,,,,43.206291,76.870955,https://2gis.com/firm/70000001061724938,branch
Tamos Education,математическая школа,Школы; Помощь в обучении,"улица Абиша Кекилбайулы, 129/4",,050060,,Бостандыкский район,Алматы,,Алматы,Казахстан,Пн: 08:30-17:00; Вт: 08:30-17:00; Ср: 08:30-17:00; Чт: 08:30-17:00; Пт: 08:30-17:00,+05:00,3.1,46,87470949596,,,,,http://tamos-education.kz,https://instagram.com/tamos_education,,https://facebook.com/TamosEducation,,https://wa.me/77002461980,,,,,,,43.209368,76.887247,https://2gis.com/firm/9429940000800917,branch
Школа КАЗГАСА,,Школы,"улица Торайгырова, 23",,050043,,Бостандыкский район,Алматы,,Алматы,Казахстан,Пн: 08:30-16:30; Вт: 08:30-16:30; Ср: 08:30-16:30; Чт: 08:30-16:30; Пт: 08:30-16:30,+05:00,4.1,58,87079752323 (администрация: пн-вс 9:00-16:30),,,,,http://school.kazgasa.kz,https://instagram.com/kazgasa_school,,,,https://wa.me/77079752323,,,,,,,43.202626,76.872218,https://2gis.com/firm/70000001033478681,branch
Bilimkana-Almaty School,частная школа,Школы,"10-й микрорайон, 7Б",1 этаж,050035,10 м-н,Ауэзовский район,Алматы,,Алматы,Казахстан,Пн: 08:00-17:00; Вт: 08:00-17:00; Ср: 08:00-17:00; Чт: 08:00-17:00; Пт: 08:00-17:00,+05:00,3.2,34,87478237730,,,,,http://bilimkana.kz,https://instagram.com/bilimkana_almaty,,https://facebook.com/bilimkanaalmaty,,,,,,,,,43.218123,76.870479,https://2gis.com/firm/70000001032654912,branch
Jiger,частная физико-математическая школа,Школы,"улица Рыскулбекова, 39а","1, 2 этаж",050042,,Ауэзовский район,Алматы,,Алматы,Казахстан,Пн: 09:00-18:00; Вт: 09:00-18:00; Ср: 09:00-18:00; Чт: 09:00-18:00; Пт: 09:00-18:00,+05:00,4.6,33,87478046447,,,,,,https://instagram.com/jiger_school,,,,https://wa.me/77478046447,,,,,,,43.205252,76.871165,https://2gis.com/firm/70000001063289438,branch
Школа-гимназия №202,,Школы,"микрорайон Мамыр 5, 6",,050036,Мамыр-1 м-н,Ауэзовский район,Алматы,,Алматы,Казахстан,Пн: 09:00-18:00; Вт: 09:00-18:00; Ср: 09:00-18:00; Чт: 09:00-18:00; Пт: 09:00-18:00,+05:00,3.3,91,87272367611,,,,,,https://instagram.com/202_mektep.gimnaziya,,,,,,,,,,,43.213555,76.847816,https://2gis.com/firm/70000001045112451,branch
Общеобразовательная школа №37,,Школы,"улица Рыскулбекова, 20",,050042,,Бостандыкский район,Алматы,,Алматы,Казахстан,Пн: 08:00-18:00; Вт: 08:00-18:00; Ср: 08:00-18:00; Чт: 08:00-18:00; Пт: 08:00-18:00,+05:00,3.6,23,87272276899 (единая справочная - пн-пт 8:30-18:00; сб 8:30-15:00),,,,,,,,,,,,,,,,,43.206194,76.879629,https://2gis.com/firm/9429940000798805,branch
Общеобразовательная школа №63,,Школы,"улица Абиша Кекилбайулы, 88",,050060,,Бостандыкский район,Алматы,,Алматы,Казахстан,Пн: 09:00-18:00; Вт: 09:00-18:00; Ср: 09:00-18:00; Чт: 09:00-18:00; Пт: 09:00-18:00; Сб: 09:00-15:00,+05:00,4.1,35,87273765920 (приемная),,,,,,https://instagram.com/school_63almaty,,,,,,,,,,,43.216659,76.88833,https://2gis.com/firm/9429940000798820,branch
Школа-лицей №119,,Школы,"8-й микрорайон, 45",,050006,8 м-н,Ауэзовский район,Алматы,,Алматы,Казахстан,Пн: 09:00-17:00; Вт: 09:00-17:00; Ср: 09:00-17:00; Чт: 09:00-17:00; Пт: 09:00-17:00; Сб: 09:00-14:00,+05:00,3.2,62,87272498496,87272490577 (приемная),,,,http://119.alschool.kz,,,,,,,,,,,,43.227131,76.868482,https://2gis.com/firm/9429940000798765,branch
Dostyq School,частная школа,Школы; Помощь в обучении,"4-й микрорайон, 11",1-3 этаж,050062,4-й м-н,Ауэзовский район,Алматы,,Алматы,Казахстан,Пн: 09:00-18:00; Вт: 09:00-18:00; Ср: 09:00-18:00; Чт: 09:00-18:00; Пт: 09:00-18:00; Сб: 09:00-18:00,+05:00,3.8,103,87051333045,87770438986,,,,http://tiktok.com/@dostyqbilim.kz,https://instagram.com/dostyq.altynsarin,,,,https://wa.me/77073446060,,,,,https://youtube.com/c/DostyqBilim,,43.227116,76.85773,https://2gis.com/firm/9429940001626510,branch
Galaxy,международная школа,Школы,"4-й микрорайон, 9",,050062,4-й м-н,Ауэзовский район,Алматы,,Алматы,Казахстан,"Пн: 08:30-12:30, 14:00-17:00; Вт: 08:00-12:30, 14:00-17:00; Ср: 08:00-12:30, 14:00-17:00; Чт: 08:00-12:30, 14:00-17:00; Пт: 08:00-12:30, 14:00-17:00",+05:00,3.6,59,87022030020 (по вопросам поступления),87272437797 (ресепшн),,,,http://www.galaxy.edu.kz,https://instagram.com/galaxyis.kz,,https://facebook.com/galaxyis.kz,,https://wa.me/77022030020,,,,https://t.me/almatygalaxyis,https://youtube.com/channel/UChuP0UlsxvIleL5gBQFQpkQ,,43.22681,76.857982,https://2gis.com/firm/70000001022382759,branch
Общеобразовательная школа №45,,Школы,"микрорайон Орбита-3, 55",,050043,Орбита-3 м-н,Бостандыкский район,Алматы,,Алматы,Казахстан,Пн: 08:00-18:00; Вт: 08:00-18:00; Ср: 08:00-18:00; Чт: 08:00-18:00; Пт: 08:00-18:00; Сб: 08:00-15:00,+05:00,3.7,85,87272499044 (приемная),87272547333,,,,,,,,,,,,,,,,43.199213,76.876359,https://2gis.com/firm/9429940000798809,branch
Общеобразовательная школа №145 им. Аль-Фараби,,Школы,"микрорайон Орбита-3, 5г",,050043,Орбита-3 м-н,Бостандыкский район,Алматы,,Алматы,Казахстан,Пн: 08:00-18:00; Вт: 08:00-18:00; Ср: 08:00-18:00; Чт: 08:00-18:00; Пт: 08:00-18:00; Сб: 08:00-18:00,+05:00,3.1,26,,,,,,,,,,,,,,,,,,43.199821,76.878001,https://2gis.com/firm/9429940000798780,branch
Bilimkana-Almaty School,частная школа,Школы,"улица Жандосова, 55/5",,050035,10 м-н,Ауэзовский район,Алматы,,Алматы,Казахстан,Пн: 08:00-17:00; Вт: 08:00-17:00; Ср: 08:00-17:00; Чт: 08:00-17:00; Пт: 08:00-17:00,+05:00,5.0,1,87478237730,,,,,,,,,,,,,,,,,43.215809,76.869753,https://2gis.com/firm/70000001082944100,branch
125 High School,,Школы,"микрорайон 1-й, 50/2",1 этаж,050062,1-й м-н,Ауэзовский район,Алматы,,Алматы,Казахстан,Пн: 08:00-18:00; Вт: 08:00-18:00; Ср: 08:00-18:00; Чт: 08:00-18:00; Пт: 08:00-18:00,+05:00,3.8,93,87080125125,,,,,http://125highschoolalmaty.2gis.biz,https://instagram.com/125highschool.almaty,,https://facebook.com/125highschool.almaty,,,,,,,,,43.230197,76.853707,https://2gis.com/firm/70000001054738929,branch
Общеобразовательная школа №117,,Школы,"микрорайон Жетысу-2, 8Б",,050063,Жетысу-2 м-н,Ауэзовский район,Алматы,,Алматы,Казахстан,Пн: 08:00-19:00; Вт: 08:00-19:00; Ср: 08:00-19:00; Чт: 08:00-19:00; Пт: 08:00-19:00; Сб: 09:00-18:00,+05:00,3.3,97,87272424555,,,,,,,,,,,,,,,,,43.22317,76.842698,https://2gis.com/firm/9429940000798764,branch
Общеобразовательная школа №40,,Школы,"микрорайон Орбита-3, 55а",,050043,Орбита-3 м-н,Бостандыкский район,Алматы,,Алматы,Казахстан,Пн: 09:00-20:00; Вт: 09:00-20:00; Ср: 09:00-20:00; Чт: 09:00-20:00; Пт: 09:00-20:00; Сб: 09:00-15:00,+05:00,4.0,35,87272546219,87272546231,87272546290,,,,,,,,,,,,,,,43.198142,76.87677,https://2gis.com/firm/9429940000798806,branch
Мирас,международная школа,Школы,"проспект Аль-Фараби, 190",,050043,Мирас м-н,Бостандыкский район,Алматы,,Алматы,Казахстан,Пн: 08:00-17:00; Вт: 08:00-17:00; Ср: 08:00-17:00; Чт: 08:00-17:00; Пт: 08:00-17:00,+05:00,3.5,36,87272421665,87711040080,87005852040,,,http://www.miras.kz,https://instagram.com/miras.school.almaty,,https://facebook.com/mirasschoolalmaty,,https://wa.me/77005852040,https://wa.me/77711040080,,,,,,43.19361,76.879087,https://2gis.com/firm/9429940000798134,branch
The insight school,частная общеобразовательная школа,Школы,"улица Жандосова, 61а",1 этаж,050036,9-й м-н,Ауэзовский район,Алматы,,Алматы,Казахстан,Пн: 09:00-17:00; Вт: 09:00-17:00; Ср: 09:00-17:00; Чт: 09:00-17:00; Пт: 09:00-17:00,+05:00,4.9,1,87023386261,87476298542,,,,,https://instagram.com/the.insightschool,,,,,,,,,,,43.212919,76.868479,https://2gis.com/firm/70000001081281016,branch
Элко,частная школа-детский сад,Школы; Частные детские сады,"микрорайон Орбита-3, 8а",,050043,Орбита-3 м-н,Бостандыкский район,Алматы,,Алматы,Казахстан,Пн: 08:00-18:00; Вт: 08:00-18:00; Ср: 08:00-18:00; Чт: 08:00-18:00; Пт: 08:00-18:00,+05:00,4.2,81,87272499099,87272425321,87017991039,,,http://www.elko1.kz,https://instagram.com/elko.sadik,,,,https://wa.me/77474151801,,,,,,,43.200831,76.87609,https://2gis.com/firm/9429940000802588,branch
A-school ,частная школа,Школы,"улица Рыскулбекова, 39а",,050042,,Ауэзовский район,Алматы,,Алматы,Казахстан,Пн: 08:00-17:00; Вт: 08:00-17:00; Ср: 08:00-17:00; Чт: 08:00-17:00; Пт: 08:00-17:00,+05:00,4.0,4,87078068888,,,,,http://aschool.com.kz/,,,,,,,,,,,,43.205252,76.871165,https://2gis.com/firm/70000001082695440,branch
Parasat Almaty,частная школа,Школы,"микрорайон 3-й, 9а",3 этаж,050062,3-й м-н,Ауэзовский район,Алматы,,Алматы,Казахстан,Пн: 08:00-18:00; Вт: 08:00-18:00; Ср: 08:00-18:00; Чт: 08:00-18:00; Пт: 08:00-18:00,+05:00,4.5,23,87479000782,,,,,http://parasat-school.kz,https://instagram.com/parasat.almaty,,,,https://wa.me/77479000782,,,,,,,43.224424,76.849708,https://2gis.com/firm/70000001034689107,branch
Общеобразовательная школа №122,,Школы,"микрорайон 3-й, 52",,050062,3-й м-н,Ауэзовский район,Алматы,,Алматы,Казахстан,Пн: 08:00-19:00; Вт: 08:00-19:00; Ср: 08:00-19:00; Чт: 08:00-19:00; Пт: 08:00-19:00,+05:00,4.3,64,87272767606,,,,,http://122.alschool.kz/,https://instagram.com/122_mektep_,,https://facebook.com/m.facebook.com/100029811301540,,,,,,,,,43.226179,76.851701,https://2gis.com/firm/9429940000802341,branch
Sunbridge,частная школа,Школы,"8-й микрорайон, 23а",,050006,8 м-н,Ауэзовский район,Алматы,,Алматы,Казахстан,Пн: 09:00-18:00; Вт: 09:00-18:00; Ср: 09:00-18:00; Чт: 09:00-18:00; Пт: 09:00-18:00,+05:00,4.8,22,87076757555,87076762626,,,,http://sunbridge.kz/,https://instagram.com/sunbridge.schoolkz,,,,https://wa.me/77076757555,,,,https://t.me/+77076757555,,,43.227158,76.870946,https://2gis.com/firm/70000001089619371,branch
Ozat,частная школа,Школы,"Мамыр-4 микрорайон, 145в",,050036,Мамыр-4 м-н,Ауэзовский район,Алматы,,Алматы,Казахстан,Пн: 08:00-17:00; Вт: 08:00-17:00; Ср: 08:00-17:00; Чт: 08:00-17:00; Пт: 08:00-17:00,+05:00,3.3,40,87074941030,87018886257,,,,,https://instagram.com/ozat.primary.school,,,,,,,,,,,43.214753,76.846696,https://2gis.com/firm/70000001077138999,branch
Школа-лицей №146,,Школы,"проспект Гагарина, 311",,050060,,Бостандыкский район,Алматы,,Алматы,Казахстан,Пн: 08:00-18:00; Вт: 08:00-18:00; Ср: 08:00-18:00; Чт: 08:00-18:00; Пт: 08:00-18:00,+05:00,1.9,123,87273021897 (приемная),,,,,,https://instagram.com/almaty_school_lisei_146,,,,,,,,,,,43.202345,76.897554,https://2gis.com/firm/9429940000798781,branch
Общеобразовательная школа №141,,Школы,"микрорайон Жетысу-2, 8в",,050063,Жетысу-1 м-н,Ауэзовский район,Алматы,,Алматы,Казахстан,Пн: 08:00-19:00; Вт: 08:00-19:00; Ср: 08:00-19:00; Чт: 08:00-19:00; Пт: 08:00-19:00; Сб: 08:00-18:00,+05:00,3.7,61,,,,,,,,,,,,,,,,,,43.224191,76.840764,https://2gis.com/firm/9429940000798777,branch
Leader,школа,Школы,"микрорайон Орбита-4, 25Б",,050043,Орбита-4 м-н,Бостандыкский район,Алматы,,Алматы,Казахстан,Пн: 08:30-16:00; Вт: 08:30-16:00; Ср: 08:30-16:00; Чт: 08:30-16:00; Пт: 08:30-16:00,+05:00,4.2,77,87272547099,87272547300,87272547322,,,http://www.leaderschool.kz,,,,,,,,,,,,43.196496,76.877432,https://2gis.com/firm/9429940000797410,branch
Pifagor middle school,частная школа,Школы; Центры раннего развития детей; Центры дистанционного обучения; Помощь в обучении; Языковые школы,"микрорайон Алмас, 244",,050052,Алмас м-н,Ауэзовский район,Алматы,,Алматы,Казахстан,Пн: 09:00-19:00; Вт: 09:00-19:00; Ср: 09:00-19:00; Чт: 09:00-19:00; Пт: 09:00-19:00,+05:00,4.9,138,87787693030,,,info@pifagorschool.kz,,http://pifagor.kz,https://instagram.com/pifagorschool.kz,,https://facebook.com/pifagor.kz,https://vk.com/pifagorkz,https://wa.me/77066384727,https://wa.me/77068048284,,,https://t.me/pifagorkz,https://youtube.com/c/Pifagorkzvideos,,43.20782,76.842863,https://2gis.com/firm/70000001035212335,branch
Общеобразовательная школа №125,,Школы,"микрорайон Алмагуль, 42",,050060,Алмагуль м-н,Бостандыкский район,Алматы,,Алматы,Казахстан,Пн: 08:00-18:00; Вт: 08:00-18:00; Ср: 08:00-18:00; Чт: 08:00-18:00; Пт: 08:00-18:00,+05:00,3.7,85,87273964748,87273964771,,,,,https://instagram.com/kguosh_125_,,,,,,,,,,,43.20309,76.90251,https://2gis.com/firm/9429940000798768,branch
Общеобразовательная школа №104,,Школы,"2-й микрорайон, 59",,050062,2 м-н,Ауэзовский район,Алматы,,Алматы,Казахстан,Пн: 08:00-18:00; Вт: 08:00-18:00; Ср: 08:00-18:00; Чт: 08:00-18:00; Пт: 08:00-18:00,+05:00,3.8,36,87272770582 (дежурная часть),87272760962 (приемная),87272773690 (отдел бухгалтерии),,,,,,,,,,,,,,,43.233775,76.857347,https://2gis.com/firm/9429940000798755,branch
Общеобразовательная школа №58,,Школы,"улица Тургут Озала, 30",,050009,Тастак-3 м-н,Алмалинский район,Алматы,,Алматы,Казахстан,Пн: 08:00-18:00; Вт: 08:00-18:00; Ср: 08:00-18:00; Чт: 08:00-18:00; Пт: 08:00-18:00,+05:00,3.9,49,87273739769,,,,,,,,,,,,,,,,,43.254756,76.880859,https://2gis.com/firm/9429940000798817,branch
Общеобразовательная школа №9,,Школы,"12-й микрорайон, 18",,050036,12-й м-н,Ауэзовский район,Алматы,,Алматы,Казахстан,"Пн: 09:00-13:00, 14:00-18:00; Вт: 09:00-13:00, 14:00-18:00; Ср: 09:00-13:00, 14:00-18:00; Чт: 09:00-13:00, 14:00-18:00; Пт: 09:00-13:00, 14:00-18:00",+05:00,3.2,47,,,,,,http://9.alschool.kz/,https://instagram.com/sch_ool9,,https://facebook.com/kguosh9,,,,,,,https://youtube.com/channel/UCr-KficVI5nOCufWEWjphlw,,43.221592,76.863866,https://2gis.com/firm/9429940000798838,branch
Общеобразовательная школа №128 им. М. Ауезова,,Школы,"улица Жарокова, 18",,050008,,Алмалинский район,Алматы,,Алматы,Казахстан,Пн: 08:00-18:00; Вт: 08:00-18:00; Ср: 08:00-18:00; Чт: 08:00-18:00; Пт: 08:00-18:00; Сб: 08:00-18:00,+05:00,3.3,63,87273751437 (приемная),87273757004,,,,,https://instagram.com/m.auezov_128,,,,,,,,,,,43.245478,76.900065,https://2gis.com/firm/9429940000798770,branch
Общеобразовательная школа №167,,Школы,"улица Тургут Озала, 45",,050009,Тастак-3 м-н,Алмалинский район,Алматы,,Алматы,Казахстан,Пн: 08:00-19:00; Вт: 08:00-19:00; Ср: 08:00-19:00; Чт: 08:00-19:00; Пт: 08:00-19:00,+05:00,3.0,27,87273740724 (приемная),87273740723,,,,,,,,,,,,,,,,43.256263,76.879162,https://2gis.com/firm/9429940001156330,branch
Общеобразовательная школа №67,,Школы,"улица Розыбакиева, 31в",,050046,,Алмалинский район,Алматы,,Алматы,Казахстан,Пн: 08:00-19:00; Вт: 08:00-19:00; Ср: 08:00-19:00; Чт: 08:00-19:00; Пт: 08:00-19:00; Сб: 08:00-19:00,+05:00,4.2,42,87273929409 (приемная),,,,,,,,,,,,,,,,,43.242847,76.888443,https://2gis.com/firm/9429940000798824,branch
Rich School,частная школа,Школы,"улица Чуланова, 42",,050038,Акбулак м-н,Алатауский район,Алматы,,Алматы,Казахстан,"Пн: 10:00-13:00, 14:00-20:00; Вт: 10:00-13:00, 14:00-20:00; Ср: 10:00-13:00, 14:00-20:00; Чт: 10:00-13:00, 14:00-20:00; Пт: 10:00-13:00, 14:00-20:00; Сб: 10:00-13:00, 14:00-20:00; Вс: 10:00-13:00, 14:00-20:00",+05:00,,,87710009969,87083601566,,,,http://richschool.kz,https://instagram.com/richschool_almaty,,,,https://wa.me/77075105466,,,,,,,43.248581,76.827719,https://2gis.com/firm/70000001088918657,branch
Авторская школа Жании Аубакировой,,Школы,"улица Карасай батыра, 140",1 этаж,050026,,Алмалинский район,Алматы,,Алматы,Казахстан,"Пн: 09:00-13:00, 14:00-17:30; Вт: 09:00-13:00, 14:00-17:30; Ср: 09:00-13:00, 14:00-17:30; Чт: 09:00-13:00, 14:00-17:30; Пт: 09:00-13:00, 14:00-17:30; Сб: 09:00-13:00, 14:00-17:30",+05:00,4.2,55,87000295577,87273780506,,,,http://school.aubakirova.kz,https://instagram.com/aubakirova.school,,https://facebook.com/school.aubakirova.kz,,,,,,,,,43.248424,76.909356,https://2gis.com/firm/9429940000791445,branch
Общеобразовательная школа №114,,Школы,"улица Коунрадская, 12а",,050061,,Алатауский район,Алматы,,Алматы,Казахстан,Пн: 08:00-18:00; Вт: 08:00-18:00; Ср: 08:00-18:00; Чт: 08:00-18:00; Пт: 08:00-18:00; Сб: 08:00-15:00,+05:00,3.5,39,87272687117 (приемная),,,,,,,,,,,,,,,,,43.260442,76.878575,https://2gis.com/firm/9429940000798761,branch
Общеобразовательная школа №121,,Школы,"микрорайон Аксай 2, 69а",,050031,Аксай-2 м-н,Ауэзовский район,Алматы,,Алматы,Казахстан,Пн: 08:00-18:00; Вт: 08:00-18:00; Ср: 08:00-18:00; Чт: 08:00-18:00; Пт: 08:00-18:00; Сб: 08:00-18:00,+05:00,3.5,85,87272688688 (приемная),87272688680,,,,,,,,,,,,,,,,43.234956,76.835944,https://2gis.com/firm/9429940000798766,branch
Общеобразовательная школа №10,,Школы,"бульвар Бухар жырау, 50Б",,050040,,Бостандыкский район,Алматы,,Алматы,Казахстан,Пн: 08:00-18:00; Вт: 08:00-18:00; Ср: 08:00-18:00; Чт: 08:00-18:00; Пт: 08:00-18:00,+05:00,4.1,93,87273948335 (приемная),87273948900 (вахта),,,,http://10.alschool.kz,https://instagram.com/school10_almaty,,,,,,,,,,,43.229978,76.912738,https://2gis.com/firm/9429940000798752,branch
Tamos Education,международная школа,Школы; Помощь в обучении; Частные детские сады,"улица Какимбека Салыкова, 140",,050045,Нур Алатау м-н,Бостандыкский район,Алматы,,Алматы,Казахстан,Пн: 08:30-17:00; Вт: 08:30-17:00; Ср: 08:30-17:00; Чт: 08:30-17:00; Пт: 08:30-17:00,+05:00,3.9,82,87470949596,,,,,http://tamos-education.kz,https://instagram.com/tamos_education,,https://facebook.com/TamosEducation,,https://wa.me/77002461980,,,,,,,43.168065,76.910293,https://2gis.com/firm/70000001025024593,branch
Школа-гимназия №152,,Школы,"улица Жалайыр, 48",,050058,Улжан-1 м-н,Алатауский район,Алматы,,Алматы,Казахстан,Пн: 08:00-19:00; Вт: 08:00-19:00; Ср: 08:00-19:00; Чт: 08:00-19:00; Пт: 08:00-19:00; Сб: 08:00-19:00,+05:00,3.3,27,87272272504 (приемная),,,,,,,,,,,,,,,,,43.300842,76.872786,https://2gis.com/firm/9429940001012942,branch
Бэст,ассоциированная школа ЮНЕСКО,Школы,"улица Мынбаева, 12а",,050008,,Бостандыкский район,Алматы,,Алматы,Казахстан,Пн: 08:00-18:00; Вт: 08:00-18:00; Ср: 08:00-18:00; Чт: 08:00-18:00; Пт: 08:00-18:00,+05:00,3.5,35,87272453286,87272453212,87272453368,,,http://best-school.kz,https://instagram.com/shkolabest,,,,,,,,,,,43.236765,76.907795,https://2gis.com/firm/9429940000793916,branch
Магистр,частная школа,Школы,"Коктем-3 микрорайон, 14",,050040,Коктем-3 м-н,Бостандыкский район,Алматы,,Алматы,Казахстан,"Пн: 08:30-13:00, 14:00-17:30; Вт: 08:30-13:00, 14:00-17:30; Ср: 08:30-13:00, 14:00-17:30; Чт: 08:30-13:00, 14:00-17:30; Пт: 08:30-13:00, 14:00-17:30",+05:00,3.5,48,87273944994,87273944815,,,,http://www.magistr-school.kz,https://instagram.com/magistr_school_almaty,,,,https://wa.me/77772154783,,,,,,,43.235086,76.916181,https://2gis.com/firm/9429940000797582,branch
Zaman,частная школа,Школы,"улица Кенесары хана, 56/1",,,Каргалы м-н,Наурызбайский район,Алматы,,Алматы,Казахстан,Пн: 09:00-18:00; Вт: 09:00-18:00; Ср: 09:00-18:00; Чт: 09:00-18:00; Пт: 09:00-18:00,+05:00,4.5,74,87471112605,,,,,http://zaman-school.kz,https://instagram.com/zaman_school.kz,,https://facebook.com/zamanmektep,,https://wa.me/77471112605,,,,,,,43.170519,76.868793,https://2gis.com/firm/70000001062984212,branch
Общеобразовательная школа №135,,Школы,"Василия Клочкова улица, 49",,050008,,Алмалинский район,Алматы,,Алматы,Казахстан,Пн: 08:00-18:00; Вт: 08:00-18:00; Ср: 08:00-18:00; Чт: 08:00-18:00; Пт: 08:00-18:00; Сб: 09:00-13:00,+05:00,3.5,54,87273751190,87273752343,87272694430,,,,,,,,,,,,,,,43.242019,76.900732,https://2gis.com/firm/9429940000798773,branch
Respect School,частная школа,Школы,"улица Аскарова, 4Б",,,Рахат (Наурызбайский район) м-н,Наурызбайский район,Алматы,,Алматы,Казахстан,Пн: 08:00-18:00; Вт: 08:00-18:00; Ср: 08:00-18:00; Чт: 08:00-18:00; Пт: 08:00-18:00,+05:00,4.2,38,,,,,,,https://instagram.com/respect__school,,,,,,,,,,,43.187723,76.865054,https://2gis.com/firm/70000001065580453,branch
Общеобразовательная школа №42,,Школы,"микрорайон Аксай 2, 33",,050031,Аксай-2 м-н,Ауэзовский район,Алматы,,Алматы,Казахстан,Пн: 08:00-19:00; Вт: 08:00-19:00; Ср: 08:00-19:00; Чт: 08:00-19:00; Пт: 08:00-19:00,+05:00,3.5,130,87272305379 (приёмная),87272305418,87272305420 (бухгалтерия),,,http://42.alschool.kz,https://instagram.com/42_mektep,,,,,,,,,,,43.23727,76.832998,https://2gis.com/firm/9429940000798807,branch
Общеобразовательная школа №155,,Школы,"улица Садвакасова, 29",,050063,Достык м-н,Ауэзовский район,Алматы,,Алматы,Казахстан,Пн: 08:00-19:00; Вт: 08:00-19:00; Ср: 08:00-19:00; Чт: 08:00-19:00; Пт: 08:00-19:00; Сб: 08:00-19:00,+05:00,3.4,43,87272309896 (приемная),87272309994,,,,,,,,,,,,,,,,43.220478,76.8365,https://2gis.com/firm/9429940000798786,branch
Престиж,частная школа,Школы,"бульвар Бухар жырау, 12а",,050021,,Бостандыкский район,Алматы,,Алматы,Казахстан,Пн: 08:00-16:30; Вт: 08:00-16:30; Ср: 08:00-16:30; Чт: 08:00-16:30; Пт: 08:00-16:30,+05:00,3.0,96,87272937612,87272937613,,,,http://prestige-school.kz,https://instagram.com/nu.prestige.school,,,,,,,,,,,43.233732,76.926052,https://2gis.com/firm/70000001022032240,branch
Общеобразовательная школа №124,,Школы,"Богенбай батыра улица, 260",,050026,,Алмалинский район,Алматы,,Алматы,Казахстан,Пн: 08:00-18:00; Вт: 08:00-18:00; Ср: 08:00-18:00; Чт: 08:00-18:00; Пт: 08:00-18:00,+05:00,3.7,77,87273760489 (приемная),,,,,http://124.alschool.kz,https://instagram.com/124_mektep,,,,,,,,,,,43.249256,76.903826,https://2gis.com/firm/9429940000798767,branch
Steam school,частная школа,Школы,"Гибадуллы Мырзагалиева улица, 41а",,050052,Таугуль-3 м-н,Ауэзовский район,Алматы,,Алматы,Казахстан,Пн: 08:30-18:00; Вт: 08:30-18:00; Ср: 08:30-18:00; Чт: 08:30-18:00; Пт: 08:30-18:00; Сб: 08:30-18:00; Вс: 08:30-18:00,+05:00,5.0,4,87014717175,,,,,http://taplink.cc/steam.school_almaty,https://instagram.com/steam.school_almaty,,,,https://wa.me/77014717175,,,,https://t.me/school_steam,,,43.19758,76.861553,https://2gis.com/firm/70000001064066111,branch
Общеобразовательная школа №96,,Школы,"улица Тлендиева, 35",3 этаж,050005,Тастак-2 м-н,Алмалинский район,Алматы,,Алматы,Казахстан,Пн: 08:00-18:00; Вт: 08:00-18:00; Ср: 08:00-18:00; Чт: 08:00-18:00; Пт: 08:00-18:00,+05:00,3.9,64,87273740390,87273740391,87273740389 (приемная),,,http://eotinish.kz/ru,https://instagram.com/schooll96,,,,,,,,,,,43.253703,76.870222,https://2gis.com/firm/9429940000798842,branch
Назарбаев интеллектуальная школа,школа физико-математического направления,Школы,"улица Жамакаева, 145",,050040,Горный гигант м-н,Медеуский район,Алматы,,Алматы,Казахстан,"Пн: 08:00-12:00, 14:00-17:00; Вт: 08:00-12:00, 14:00-17:00; Ср: 08:00-12:00, 14:00-17:00; Чт: 08:00-12:00, 14:00-17:00; Пт: 08:00-12:00, 14:00-17:00",+05:00,3.5,128,87273310104,,,,,http://fmalm.nis.edu.kz,https://instagram.com/nis_pm_almaty,,https://facebook.com/fmalm.nis.edu.kz,,,,,,https://t.me/nisphm,https://youtube.com/channel/UC0FhZfxcAlsWdvU-Bgzgi8A,,43.214464,76.951715,https://2gis.com/firm/9429940001622361,branch
НОЦ Innovation,организация по проведению международных олимпиад и конкурсов,Школы; Помощь в обучении; Центры дистанционного обучения,"улица Каныша Сатпаева, 16а",5 этаж,050013,,Бостандыкский район,Алматы,,Алматы,Казахстан,Пн: 10:00-17:00; Вт: 10:00-17:00; Ср: 10:00-17:00; Чт: 10:00-17:00; Пт: 10:00-17:00,+05:00,5.0,1,87754089100,,,,,http://innov.kz,https://instagram.com/olympiad_kz,,https://facebook.com/olympiadkz,https://vk.com/olympiad_kz,https://wa.me/77754089100,,,,,,,43.237652,76.940264,https://2gis.com/firm/70000001021351386,branch
Профильная Школа КАЗНУ,,Школы,"улица Масанчи, 39",,050012,,Алмалинский район,Алматы,,Алматы,Казахстан,Пн: 08:00-17:00; Вт: 08:00-17:00; Ср: 08:00-17:00; Чт: 08:00-17:00; Пт: 08:00-17:00,+05:00,3.8,43,87082201097,87784121315,,,,http://www.kaznu.kz/ru/16594/page/,https://instagram.com/shkola.kaznu,,https://facebook.com/profile.php?id=100069028501475,,,,,,,,,43.251965,76.929017,https://2gis.com/firm/70000001052442207,branch
Достар,международная школа-лицей,Школы,"улица Амангельды, 1",,,,Алмалинский район,Алматы,,Алматы,Казахстан,Пн: 09:00-17:00; Вт: 09:00-17:00; Ср: 09:00-17:00; Чт: 09:00-17:00; Пт: 09:00-17:00,+05:00,3.2,20,87272795776,87272795674,,,,http://dostar-school.kz,https://instagram.com/dostar.school,,https://facebook.com/dostarschool,,,,,,,https://youtube.com/@dostar-school,,43.262177,76.929316,https://2gis.com/firm/9429940000951172,branch
Общеобразовательная школа №64,,Школы,"улица Оренбургская, 17",,050007,,Медеуский район,Алматы,,Алматы,Казахстан,Пн: 08:00-18:00; Вт: 08:00-18:00; Ср: 08:00-18:00; Чт: 08:00-18:00; Пт: 08:00-18:00; Сб: 08:00-18:00,+05:00,3.5,49,,,,,,,,,,,,,,,,,,43.27261,76.982083,https://2gis.com/firm/9429940000798821,branch
Общеобразовательная школа №75 им. Ш. Кудайбердыулы,,Школы,"улица Туркебаева, 176",,050009,,Алмалинский район,Алматы,,Алматы,Казахстан,"Пн: 09:00-13:00, 14:00-18:00; Вт: 09:00-13:00, 14:00-18:00; Ср: 09:00-13:00, 14:00-18:00; Чт: 09:00-13:00, 14:00-18:00; Пт: 09:00-13:00, 14:00-18:00",+05:00,3.6,95,87273744894 (приемная),87272683287,87272683252,,,http://75.alschool.kz,https://instagram.com/school75__,,https://facebook.com/almatyschool75,,,,,,,,,43.24305,76.880471,https://2gis.com/firm/9429940000798829,branch
Baiterek school,,Школы,"улица Толе би, 109",1 этаж,050012,,Алмалинский район,Алматы,,Алматы,Казахстан,Пн: 08:00-17:00; Вт: 08:00-17:00; Ср: 08:00-17:00; Чт: 08:00-17:00; Пт: 08:00-17:00,+05:00,4.0,119,87473393149,,,,,http://baiterekschool.kz,https://instagram.com/baiterek.school,,,,https://wa.me/77473393149,,,,,,,43.253795,76.923078,https://2gis.com/firm/9429940000792223,branch
Qalam School,частная школа,Школы,"микрорайон Аксай-5, 25",,050063,Аксай-5 м-н,Ауэзовский район,Алматы,,Алматы,Казахстан,Пн: 09:00-19:00; Вт: 09:00-19:00; Ср: 09:00-19:00; Чт: 09:00-19:00; Пт: 09:00-19:00; Сб: 09:00-19:00,+05:00,4.7,14,87066536060,,,,,http://qalamschool.kz,https://instagram.com/qalam.highschool,,,,https://wa.me/77066536060,,,,,,,43.230439,76.832239,https://2gis.com/firm/70000001083288355,branch
Qalam School,частная казахская начальная школа,Школы,"микрорайон Аксай-5, 25 к6",1 этаж,050063,Аксай-5 м-н,Ауэзовский район,Алматы,,Алматы,Казахстан,Пн: 10:00-20:00; Вт: 10:00-20:00; Ср: 10:00-20:00; Чт: 10:00-20:00; Пт: 10:00-20:00; Сб: 10:00-20:00,+05:00,4.0,31,,,,,,http://qalamschool.kz,https://instagram.com/qalamschool.almaty,,,,,,,,,,,43.231846,76.831159,https://2gis.com/firm/70000001063616023,branch
Zerde,частная школа-гимназия,Школы,"улица Маркова, 47Б",,050040,,Бостандыкский район,Алматы,,Алматы,Казахстан,Пн: 08:15-16:45; Вт: 08:15-16:45; Ср: 08:15-16:45; Чт: 08:15-16:45; Пт: 08:15-16:45,+05:00,4.0,22,87024088783,,,,,http://zerde-school.kz,https://instagram.com/zerde_gymnasium,,,,https://wa.me/77760059987,,,,https://t.me/+77760059987,,,43.228256,76.931491,https://2gis.com/firm/9429940000791249,branch
Prizma School,частная школа,Школы,"улица Сарайшык, 26",1 этаж,,Акбулак м-н,Алатауский район,Алматы,,Алматы,Казахстан,"Пн: 08:00-13:00, 14:00-17:00; Вт: 08:00-13:00, 14:00-17:00; Ср: 08:00-13:00, 14:00-17:00; Чт: 08:00-13:00, 14:00-17:00; Пт: 08:00-13:00, 14:00-17:00",+05:00,4.9,34,87000272323,,,,,,https://instagram.com/prizma.almaty,,,,https://wa.me/77000272323,,,,https://t.me/prizmaalmaty,,,43.245581,76.826225,https://2gis.com/firm/70000001070247922,branch
Общеобразовательная школа №97,,Школы,"микрорайон 1-й, 76а",,050062,1-й м-н,Ауэзовский район,Алматы,,Алматы,Казахстан,Пн: 08:00-19:00; Вт: 08:00-19:00; Ср: 08:00-19:00; Чт: 08:00-19:00; Пт: 08:00-19:00,+05:00,3.1,45,87272761593 (приемная),87272760251,,,,,,,,,,,,,,,,43.231339,76.850422,https://2gis.com/firm/9429940000798843,branch
Общеобразовательная школа №183,,Школы,"улица Жангир хана, 73",,,Ерменсай м-н,Бостандыкский район,Алматы,,Алматы,Казахстан,Пн: 08:00-18:00; Вт: 08:00-18:00; Ср: 08:00-18:00; Чт: 08:00-18:00; Пт: 08:00-18:00; Сб: 08:00-13:00,+05:00,3.3,11,87273867215,87273809385,,,,,https://instagram.com/183school_almaty,,,,,,,,,,,43.188246,76.925751,https://2gis.com/firm/9429940001045321,branch
Nurorda Almaty,частная школа,Школы,"улица Чуланова, 133",,050038,Акбулак м-н,Алатауский район,Алматы,,Алматы,Казахстан,Пн: 09:00-18:00; Вт: 09:00-18:00; Ср: 09:00-18:00; Чт: 09:00-18:00; Пт: 09:00-18:00,+05:00,3.6,59,87004242420,,,,,http://nurordaalmaty.kz,https://instagram.com/nurorda.almaty,,,,https://wa.me/77004242420,,,,,https://youtube.com/@nurorda-almaty/about,,43.251743,76.826299,https://2gis.com/firm/70000001074382206,branch
Haileybury Almaty British School,частная Британская школа,Школы,"проспект Аль-Фараби, 112",,050044,,Медеуский район,Алматы,,Алматы,Казахстан,Пн: 09:00-16:00; Вт: 09:00-16:00; Ср: 09:00-16:00; Чт: 09:00-16:00; Пт: 09:00-16:00,+05:00,3.5,38,87023550100,87273550100,,,,http://www.haileybury.kz,https://instagram.com/haileybury_almaty,https://twitter.com/haileyburykz,https://facebook.com/haileyburyalmaty.kz,,,,,,https://t.me/haileybury_almaty,https://youtube.com/channel/UCi4EwScq8ddaYz7guk1K50g,,43.217189,76.933089,https://2gis.com/firm/9429940000787579,branch
Международная школа г. Алматы,,Школы,"улица Каныша Сатпаева, 40Б",,050057,,Бостандыкский район,Алматы,,Алматы,Казахстан,Пн: 08:30-16:30; Вт: 08:30-16:30; Ср: 08:30-16:30; Чт: 08:30-16:30; Пт: 08:30-16:30,+05:00,4.2,57,87272744808 (приемная директора),87272747525,,,,http://isoa.kz,https://instagram.com/isoa.kz,,,,https://wa.me/77773701103,,,,,,,43.234239,76.902631,https://2gis.com/firm/9429940000797907,branch
Кемел,частная физико-математическая школа,Школы,"улица Радостовца, 215",1-4 этаж,050060,,Бостандыкский район,Алматы,,Алматы,Казахстан,Пн: 08:00-18:00; Вт: 08:00-18:00; Ср: 08:00-18:00; Чт: 08:00-18:00; Пт: 08:00-18:00,+05:00,2.9,54,87083146454 (менеджер),,,,,,https://instagram.com/kemel.school.kz,,,,https://wa.me/77083146454,,,,,,,43.222934,76.893986,https://2gis.com/firm/70000001052544974,branch
Joo High School,,Школы; Помощь в обучении,"переулок Дружбы, 14Б",,050060,,Бостандыкский район,Алматы,,Алматы,Казахстан,Пн: 10:00-19:00; Вт: 10:00-19:00; Ср: 10:00-19:00; Чт: 10:00-19:00; Пт: 10:00-19:00; Сб: 10:00-19:00; Вс: 10:00-19:00,+05:00,3.8,69,87074992541,,,,,http://joohs.kz,https://instagram.com/joo.almaty,,,,https://wa.me/77074992541,https://wa.me/77711230702,,,,https://youtube.com/c/JooKz,,43.201861,76.897083,https://2gis.com/firm/70000001057657673,branch
Средняя школа им. Л.Н. Толстого,,Школы,"улица Рахметова, 40",,040916,,,,Карасайский район,Алматинская область,Казахстан,Пн: 08:00-19:00; Вт: 08:00-19:00; Ср: 08:00-19:00; Чт: 08:00-19:00; Пт: 08:00-19:00,+05:00,3.5,37,87273883040,87273883025,,,,,,,,,,,,,,,,43.241954,76.761361,https://2gis.com/firm/70000001019950963,branch
Средняя школа им. М. Маметовой,,Школы,"улица Наурызбай батыра, 108",,040921,,,,Карасайский район,Алматинская область,Казахстан,Пн: 08:30-18:00; Вт: 08:30-18:00; Ср: 08:30-18:00; Чт: 08:30-18:00; Пт: 08:30-18:00; Сб: 08:30-18:00,+05:00,3.1,21,,,,,,,,,,,,,,,,,,43.259681,76.773325,https://2gis.com/firm/9429940001589659,branch
Общеобразовательная школа №187,,Школы,"улица Санжара Жандосова, 2",,050067,Таусамалы м-н,Наурызбайский район,Алматы,,Алматы,Казахстан,Пн: 09:00-18:00; Вт: 09:00-18:00; Ср: 09:00-18:00; Чт: 09:00-18:00; Пт: 09:00-18:00; Сб: 08:00-14:00,+05:00,3.6,49,87272970779,,,,,,,,,,,,,,,,,43.186387,76.829837,https://2gis.com/firm/9429940001013362,branch
Средняя школа №186 им. С. Копбаева,,Школы,"улица Байсултанова, 15",,050027,Акжар м-н,Наурызбайский район,Алматы,,Алматы,Казахстан,Пн: 08:00-18:00; Вт: 08:00-18:00; Ср: 08:00-18:00; Чт: 08:00-18:00; Пт: 08:00-18:00; Сб: 08:00-18:00,+05:00,3.5,48,87273604545 (единая справочная: пн-сб 8:00-18:00),,,,,,,,,,,,,,,,,43.19093,76.801965,https://2gis.com/firm/70000001018378353,branch
Общеобразовательная школа №77,,Школы,"улица Жукова, 140",,050059,Горный гигант м-н,Медеуский район,Алматы,,Алматы,Казахстан,Пн: 08:00-19:00; Вт: 08:00-19:00; Ср: 08:00-19:00; Чт: 08:00-19:00; Пт: 08:00-19:00,+05:00,4.2,31,87272647663 (приемная),,,,,,,,,,,,,,,,,43.218241,76.949359,https://2gis.com/firm/9429940000798831,branch
Общеобразовательная школа №91,,Школы,"улица Докучаева, 31а",,050061,,Алатауский район,Алматы,,Алматы,Казахстан,Пн: 08:00-19:00; Вт: 08:00-19:00; Ср: 08:00-19:00; Чт: 08:00-19:00; Пт: 08:00-19:00; Сб: 08:00-17:00,+05:00,3.3,30,87272477898 (приемная),,,,,,,,,,,,,,,,,43.255726,76.85205,https://2gis.com/firm/9429940000798839,branch
Cosmo International School,международная школа,Школы,"улица Карасай батыра, 204/1",,050009,,Алмалинский район,Алматы,,Алматы,Казахстан,Пн: 08:00-17:00; Вт: 08:00-17:00; Ср: 08:00-17:00; Чт: 08:00-17:00; Пт: 08:00-17:00,+05:00,3.6,28,87712881136,87786451350,,,,,https://instagram.com/cosmo_international_school,,,,https://wa.me/77786451350,,,,,,,43.24725,76.891752,https://2gis.com/firm/70000001078759665,branch
Joo High School,,Школы; Помощь в обучении,"улица Байтерекова, 3",,050038,Акбулак м-н,Алатауский район,Алматы,,Алматы,Казахстан,Пн: 10:00-19:00; Вт: 10:00-19:00; Ср: 10:00-19:00; Чт: 10:00-19:00; Пт: 10:00-19:00; Сб: 10:00-19:00; Вс: 10:00-19:00,+05:00,3.9,60,87473845582,,,,,http://joohs.kz,https://instagram.com/joo.alatau,,,,https://wa.me/77711230702,https://wa.me/77473845582,,,,https://youtube.com/c/JooKz,,43.255015,76.823329,https://2gis.com/firm/70000001077051866,branch
Upstream Zerek School,частная школа,Школы,"улица Салыка Зиманова, 80",,050027,Акжар м-н,Наурызбайский район,Алматы,,Алматы,Казахстан,Пн: 08:00-17:00; Вт: 08:00-17:00; Ср: 08:00-17:00; Чт: 08:00-17:00; Пт: 08:00-17:00,+05:00,4.9,14,87474897525,,,,,http://upstreamzerekschool.kz,https://instagram.com/upstream_zerek_school,,,,https://wa.me/77474897525,,,,,,,43.190101,76.801741,https://2gis.com/firm/70000001055605884,branch
Общеобразовательная школа №16 им. А. Шарипова ,,Школы,"улица Ади Шарипова, 23",,,,Алмалинский район,Алматы,,Алматы,Казахстан,Пн: 08:30-18:30; Вт: 08:30-18:30; Ср: 08:30-18:30; Чт: 08:30-18:30; Пт: 08:30-18:30,+05:00,3.1,76,87272337502,87272337496,87272399260 (приемная),,,,,,,,,,,,,,,43.259633,76.920991,https://2gis.com/firm/9429940000798790,branch
Arman shaq бастауыш мектебі,,Школы; Начальные школы-детские сады / Прогимназии; Центры раннего развития детей; Детские / подростковые клубы; Дневные детские лагеря,"улица Розыбакиева, 66",1 этаж,050009,,Алмалинский район,Алматы,,Алматы,Казахстан,Пн: 08:00-17:00; Вт: 08:00-17:00; Ср: 08:00-17:00; Чт: 08:00-17:00; Пт: 08:00-17:00,+05:00,5.0,35,87003793177,87273793177,,,,http://armanshaqmektep.tilda.ws,https://instagram.com/armanshaq,,https://facebook.com/Arman-shaq-%D0%BC%D0%B5%D0%BA%D1%82%D0%B5%D0%B1i-100403142404026,,https://wa.me/77003793177,,,,https://t.me/armanshaq,,,43.249318,76.888797,https://2gis.com/firm/70000001055328250,branch
Арай,частная средняя школа,Школы,"микрорайон Аксай 2, 51",,050031,Аксай-2 м-н,Ауэзовский район,Алматы,,Алматы,Казахстан,Пн: 09:00-17:00; Вт: 09:00-17:00; Ср: 09:00-17:00; Чт: 09:00-17:00; Пт: 09:00-17:00,+05:00,3.2,35,87272689494,87272689169,,,,,https://instagram.com/arai_school,,https://facebook.com/profile.php?id=100054808478168,,,,,,,,,43.23849,76.83796,https://2gis.com/firm/9429940000792819,branch
Общеобразовательная школа №47,,Школы,"улица Олимпийская, 1",,,Тау-Самал м-н,Медеуский район,Алматы,,Алматы,Казахстан,Пн: 08:00-18:00; Вт: 08:00-18:00; Ср: 08:00-18:00; Чт: 08:00-18:00; Пт: 08:00-18:00,+05:00,3.8,11,87272548879 (приемная),,,,,,,,,,,,,,,,,43.19242,76.967488,https://2gis.com/firm/9429940000798810,branch
Общеобразовательная школа №109,,Школы,"улица Гончарова, 23",,050034,,Жетысуский район,Алматы,,Алматы,Казахстан,Пн: 08:00-19:00; Вт: 08:00-19:00; Ср: 08:00-19:00; Чт: 08:00-19:00; Пт: 08:00-19:00; Сб: 08:00-19:00,+05:00,4.0,63,87272530122 (приемная),87272530034,,,,,,,,,,,,,,,,43.266813,76.893627,https://2gis.com/firm/9429940000798758,branch
Бакалавриат,частная школа,Школы,"микрорайон Самал-1, 20",,050051,Самал-1 м-н,Медеуский район,Алматы,,Алматы,Казахстан,Пн: 09:00-16:30; Вт: 09:00-16:30; Ср: 09:00-16:30; Чт: 09:00-16:30; Пт: 09:00-16:30,+05:00,4.0,35,87273472222 (доп.201),87273472222 (доп.202),87273472222 (доп.203),,,http://www.bachelor.kz,https://instagram.com/school_bakalavriat,,https://facebook.com/school.bakalavriat,,https://wa.me/77059927414,,,viber://chat/?number=77011409843,,,,43.23576,76.954431,https://2gis.com/firm/9429940000802334,branch
Назарбаев интеллектуальная школа,школа химико-биологического направления,Школы,"улица Елибаева, 2",,050006,Калкаман-2 м-н,Наурызбайский район,Алматы,,Алматы,Казахстан,Пн: 08:00-18:00; Вт: 08:00-18:00; Ср: 08:00-18:00; Чт: 08:00-18:00; Пт: 08:00-18:00,+05:00,3.6,88,,,,,,http://hbalm.nis.edu.kz,https://instagram.com/nis_chembio_almaty,,https://facebook.com/hbalm.nis.edu.kz,,,,,,,https://youtube.com/%D0%9D%D0%98%D0%A8%D0%A5%D0%91%D0%9D%D0%90%D0%BB%D0%BC%D0%B0%D1%82%D1%8B,,43.209803,76.801579,https://2gis.com/firm/70000001019875428,branch
Общеобразовательная школа №98,,Школы,"улица Татибекова, 89",,050019,,Медеуский район,Алматы,,Алматы,Казахстан,Пн: 08:00-19:30; Вт: 08:00-19:30; Ср: 08:00-19:30; Чт: 08:00-19:30; Пт: 08:00-19:30,+05:00,3.3,14,87272435017,,,,,,,,,,,,,,,,,43.288373,76.977821,https://2gis.com/firm/9429940001349056,branch
Steam school,частная школа,Школы,"улица Кастеева, 106в",,050010,,Медеуский район,Алматы,,Алматы,Казахстан,Пн: 08:30-18:00; Вт: 08:30-18:00; Ср: 08:30-18:00; Чт: 08:30-18:00; Пт: 08:30-18:00,+05:00,4.0,53,87014717175,,,,,,https://instagram.com/steam.school_almaty,,,,https://wa.me/77014717175,,,,https://t.me/school_steam,,,43.243386,76.966538,https://2gis.com/firm/70000001043815061,branch
QSI Almaty International School,частная школа,Школы,"улица Ашимова, 185",,050006,Калкаман-2 м-н,Наурызбайский район,Алматы,,Алматы,Казахстан,Пн: 08:00-16:00; Вт: 08:00-16:00; Ср: 08:00-16:00; Чт: 08:00-16:00; Пт: 08:00-16:00,+05:00,3.5,38,87273818710,87273818611,87273818720,,,http://www.qsi.org,https://instagram.com/quality_schools_international,,,,,,,,,,,43.209751,76.817608,https://2gis.com/firm/9429940000792192,branch
Общеобразовательная школа №205,,Школы,"улица Центральная, 120",,050047,Томирис м-н,Алатауский район,Алматы,,Алматы,Казахстан,Пн: 08:00-18:00; Вт: 08:00-18:00; Ср: 08:00-18:00; Чт: 08:00-18:00; Пт: 08:00-18:00,+05:00,3.3,65,87072928600,,,,,,https://instagram.com/205__school,,,,,,,,,,,43.32905,76.850813,https://2gis.com/firm/70000001059485300,branch
Общеобразовательная школа №157,,Школы,"улица Кыдырбекова, 32",,050006,Калкаман-2 м-н,Наурызбайский район,Алматы,,Алматы,Казахстан,Пн: 08:00-18:30; Вт: 08:00-18:30; Ср: 08:00-18:30; Чт: 08:00-18:30; Пт: 08:00-18:30; Сб: 08:00-18:30,+05:00,3.7,91,87273853367 (приемная),87272657136 (бухгалтерия),,,,,https://instagram.com/157schoola,,,,,,,,,,,43.219778,76.80187,https://2gis.com/firm/9429940000798788,branch
Живая Вселенная,частная школа,Школы,"улица Кацева, 73",,050043,Хан-Тенгри м-н,Бостандыкский район,Алматы,,Алматы,Казахстан,"Пн: 08:00-13:00, 14:00-17:00; Вт: 08:00-13:00, 14:00-17:00; Ср: 08:00-13:00, 14:00-17:00; Чт: 08:00-13:00, 14:00-17:00; Пт: 08:00-13:00, 14:00-17:00",+05:00,4.6,14,87273218071,87020065732,,ecoschool.almaty@gmail.com,,http://ecoschool.kz,https://instagram.com/zhivaya_vselennaya,,,,https://wa.me/77772478995,,,,,,,43.171231,76.892913,https://2gis.com/firm/70000001078993034,branch
Общеобразовательная школа №196,,Школы,"улица Аскар Сулейменов, 15а",,,Мадениет м-н,Алатауский район,Алматы,,Алматы,Казахстан,Пн: 09:00-18:00; Вт: 09:00-18:00; Ср: 09:00-18:00; Чт: 09:00-18:00; Пт: 09:00-18:00; Сб: 09:00-15:00,+05:00,3.9,56,,,,,,,https://instagram.com/196_mektep,,,,,,,,,,,43.332731,76.816213,https://2gis.com/firm/70000001028205268,branch
Мозаика,коррекционная школа,Школы,"Василия Клочкова улица, 167",,050057,,Бостандыкский район,Алматы,,Алматы,Казахстан,Пн: 08:30-18:00; Вт: 08:30-18:00; Ср: 08:30-18:00; Чт: 08:30-18:00; Пт: 08:30-18:00,+05:00,4.2,26,87771679042,87771678980,,,,,https://instagram.com/shkolamozaika,,,,,,,,,,,43.228503,76.902421,https://2gis.com/firm/70000001052106659,branch
Общеобразовательная школа №151,,Школы,"улица Новая Садовая, 100а",,050058,Шапагат м-н,Алатауский район,Алматы,,Алматы,Казахстан,Пн: 08:00-18:00; Вт: 08:00-18:00; Ср: 08:00-18:00; Чт: 08:00-18:00; Пт: 08:00-18:00,+05:00,2.7,19,87272456308 (приемная),87272456309,,,,,,,,,,,,,,,,43.281557,76.879631,https://2gis.com/firm/9429940000798784,branch
Общеобразовательная школа №26,,Школы,"улица Жанкожа батыра, 134",,050065,Шанырак-2 м-н,Алатауский район,Алматы,,Алматы,Казахстан,Пн: 08:00-19:45; Вт: 08:00-19:45; Ср: 08:00-19:45; Чт: 08:00-19:45; Пт: 08:00-19:45; Сб: 09:00-15:00,+05:00,3.7,29,87272718790,,,,,,,,,,,,,,,,,43.297829,76.851808,https://2gis.com/firm/9429940000798800,branch
Ак-ниет,частная начальная школа,Школы,"2-й микрорайон, 58",1 этаж,050062,2 м-н,Ауэзовский район,Алматы,,Алматы,Казахстан,Пн: 08:30-17:00; Вт: 08:30-17:00; Ср: 08:30-17:00; Чт: 08:30-17:00; Пт: 08:30-17:00,+05:00,4.3,40,87272769927,87272760583,,,,,https://instagram.com/ak_niet58,,,,,,,,,,,43.231892,76.857363,https://2gis.com/firm/9429940000954400,branch
Общеобразовательная школа №191 им. Г. Мустафина,,Школы,"улица Альмерек, 41",,050070,Каргалы м-н,Бостандыкский район,Алматы,,Алматы,Казахстан,Пн: 09:00-18:00; Вт: 09:00-18:00; Ср: 09:00-18:00; Чт: 09:00-18:00; Пт: 09:00-18:00,+05:00,2.9,46,87272997734 (приемная),87272997710,,,,,,,,,,,,,,,,43.176266,76.869209,https://2gis.com/firm/9429940000875315,branch
Средняя школа №194,,Школы,"улица Султангазина, 7а",,050010,Кольсай м-н,Медеуский район,Алматы,,Алматы,Казахстан,Пн: 08:00-19:00; Вт: 08:00-19:00; Ср: 08:00-19:00; Чт: 08:00-19:00; Пт: 08:00-19:00; Сб: 08:00-19:00,+05:00,,,87273725089,,,,,,,,,,,,,,,,,43.216709,77.002283,https://2gis.com/firm/70000001024830479,branch
Общеобразовательная школа №181,,Школы,"микрорайон Аккент, 19",,,Аккент м-н,Алатауский район,Алматы,,Алматы,Казахстан,"Пн: 09:00-13:00, 14:00-17:30; Вт: 09:00-13:00, 14:00-17:30; Ср: 09:00-13:00, 14:00-17:30; Чт: 09:00-13:00, 14:00-17:30; Пт: 09:00-13:00, 14:00-17:30",+05:00,2.9,44,87272467062 (приемная),87272469204,,,,http://181.alschool.kz,https://instagram.com/181_mektep,,,,,,,,,,,43.244376,76.81669,https://2gis.com/firm/9429940001045167,branch
Средняя школа №204,,Школы,"улица Ак-Кайнар, 3",,050047,Саялы м-н,Алатауский район,Алматы,,Алматы,Казахстан,Пн: 09:00-18:00; Вт: 09:00-18:00; Ср: 09:00-18:00; Чт: 09:00-18:00; Пт: 09:00-18:00; Сб: 09:00-18:00,+05:00,3.7,98,,,,,,,,,,,,,,,,,,43.310499,76.839183,https://2gis.com/firm/70000001061369413,branch
Көкіл,частная школа,Школы; Центры раннего развития детей,"улица Калдаякова, 25",1 этаж,050010,,Медеуский район,Алматы,,Алматы,Казахстан,Пн: 08:30-17:00; Вт: 08:30-17:00; Ср: 08:30-17:00; Чт: 08:30-17:00; Пт: 08:30-17:00,+05:00,3.6,23,87273823723,,,,,http://www.kokil.kz,https://instagram.com/kokil.kz,,https://facebook.com/kokil.kz,,,,,,,,,43.260448,76.957353,https://2gis.com/firm/9429940000796925,branch
Общеобразовательная школа №180,,Школы,"улица Ак-Кайнар, 7",,050047,Саялы м-н,Алатауский район,Алматы,,Алматы,Казахстан,Пн: 09:00-18:00; Вт: 09:00-18:00; Ср: 09:00-18:00; Чт: 09:00-18:00; Пт: 09:00-18:00,+05:00,2.9,48,87089707282,,,,,,https://instagram.com/180_mektep,,,,,,,,,,,43.312243,76.840937,https://2gis.com/firm/9429940001118735,branch
Общеобразовательная школа №3,,Школы,"улица Вольная, 6а",,050050,,Жетысуский район,Алматы,,Алматы,Казахстан,Пн: 08:30-19:30; Вт: 08:30-19:30; Ср: 08:30-19:30; Чт: 08:30-19:30; Пт: 08:30-19:30,+05:00,3.7,20,87272333475 (приемная),,,,,,,,,,,,,,,,,43.271275,76.928384,https://2gis.com/firm/9429940000798802,branch
Leaders Junior School,частная школа,Школы; Курсы робототехники; Дневные детские лагеря; Языковые школы; Спортивные секции,"улица Жамакаева, 254г",1-2 этаж,050044,,Медеуский район,Алматы,,Алматы,Казахстан,Пн: 08:30-17:00; Вт: 08:30-17:00; Ср: 08:30-17:00; Чт: 08:30-17:00; Пт: 08:30-17:00,+05:00,4.1,19,87071444391,,,,,,,,,,https://wa.me/77071444391,,,,https://t.me/+77071444391,,,43.209262,76.94979,https://2gis.com/firm/70000001055679514,branch
Общеобразовательная школа №108,,Школы,"улица Акпаева, 59",,050050,,Жетысуский район,Алматы,,Алматы,Казахстан,"Пн: 08:00-13:00, 14:00-19:00; Вт: 08:00-13:00, 14:00-19:00; Ср: 08:00-13:00, 14:00-19:00; Чт: 08:00-13:00, 14:00-19:00; Пт: 08:00-13:00, 14:00-19:00; Сб: 08:00-13:00, 14:00-19:00",+05:00,2.8,55,87273843712,87273832478,87273844022 (вахта),,,,,,,,,,,,,,,43.289797,76.932128,https://2gis.com/firm/9429940000798757,branch
Общеобразовательная школа №41 им. Абдуллы Карсакбаева,,Школы,"улица Тумар, 14",,050061,Самгау м-н,Алатауский район,Алматы,,Алматы,Казахстан,Пн: 08:00-19:00; Вт: 08:00-19:00; Ср: 08:00-19:00; Чт: 08:00-19:00; Пт: 08:00-19:00; Сб: 08:00-14:00,+05:00,4.6,4,87272435566,,,,,,,,,,,,,,,,,43.269714,76.860885,https://2gis.com/firm/70000001022373032,branch
Общеобразовательная школа №106,,Школы,"улица Артиллерийская, 30",,050066,,Турксибский район,Алматы,,Алматы,Казахстан,Пн: 08:00-19:00; Вт: 08:00-19:00; Ср: 08:00-19:00; Чт: 08:00-19:00; Пт: 08:00-19:00; Сб: 08:00-19:00; Вс: 00:00-24:00,+05:00,3.6,33,87273972887 (приемная),,,,,,https://instagram.com/almatyschool106_,,,,,,,,,,,43.300398,76.934756,https://2gis.com/firm/9429940000798756,branch
Общеобразовательная школа №29,,Школы,"Богенбай батыра улица, 42",,050010,,Медеуский район,Алматы,,Алматы,Казахстан,Пн: 08:00-18:00; Вт: 08:00-18:00; Ср: 08:00-18:00; Чт: 08:00-18:00; Пт: 08:00-18:00; Сб: 09:00-13:00,+05:00,3.3,30,87272366195,87272365108 (приемная),,,,,,,,,,,,,,,,43.254224,76.96728,https://2gis.com/firm/9429940000798801,branch
Общеобразовательная школа №150 им. М. Хамраева,,Школы,"улица Биянху, 87",,050058,Шапагат м-н,Алатауский район,Алматы,,Алматы,Казахстан,Пн: 08:00-18:35; Вт: 08:00-18:35; Ср: 08:00-18:35; Чт: 08:00-18:35; Пт: 08:00-18:35,+05:00,4.0,22,87272455910,,,,,,,,,,,,,,,,,43.283943,76.886625,https://2gis.com/firm/9429940000798783,branch
Общеобразовательная школа №112,,Школы,"улица Ратушного, 131",,050014,,Жетысуский район,Алматы,,Алматы,Казахстан,Пн: 08:00-19:50; Вт: 08:00-19:50; Ср: 08:00-19:50; Чт: 08:00-19:50; Пт: 08:00-19:50,+05:00,3.9,20,87272516506 (вахта),87272941792 (приемная),87272516595 (директор),,,,,,,,,,,,,,,43.293676,76.915821,https://2gis.com/firm/9429940000798760,branch
Общеобразовательная школа №57,,Школы,"улица Ботаническая, 2",,050050,,Жетысуский район,Алматы,,Алматы,Казахстан,Пн: 08:00-19:45; Вт: 08:00-19:45; Ср: 08:00-19:45; Чт: 08:00-19:45; Пт: 08:00-19:45; Сб: 08:00-19:45,+05:00,3.8,30,,,,,,,,,,,,,,,,,,43.284196,76.941096,https://2gis.com/firm/9429940000798816,branch
Общеобразовательная школа №32,,Школы,"проспект Суюнбая, 505",,050030,,Турксибский район,Алматы,,Алматы,Казахстан,Пн: 08:00-19:00; Вт: 08:00-19:00; Ср: 08:00-19:00; Чт: 08:00-19:00; Пт: 08:00-19:00; Сб: 08:00-13:00,+05:00,3.3,32,87272902883 (единая справочная),,,,,,https://instagram.com/32.mektep,,,,,,,,,,,43.372839,76.991206,https://2gis.com/firm/9429940000798803,branch
Общеобразовательная школа №185,,Школы,"улица Алдияр, 16",,050038,Алгабас м-н,Алатауский район,Алматы,,Алматы,Казахстан,Пн: 08:00-18:00; Вт: 08:00-18:00; Ср: 08:00-18:00; Чт: 08:00-18:00; Пт: 08:00-18:00,+05:00,3.7,15,87273079315 (приемная),,,,,,,,,,,,,,,,,43.247197,76.800983,https://2gis.com/firm/70000001020637398,branch
Средняя школа №193,,Школы,"улица Жар-жар, 54",,050017,Кемел м-н,Жетысуский район,Алматы,,Алматы,Казахстан,Пн: 09:00-18:00; Вт: 09:00-18:00; Ср: 09:00-18:00; Чт: 09:00-18:00; Пт: 09:00-18:00; Сб: 09:00-18:00,+05:00,3.8,16,87272603423,,,,,,https://instagram.com/school_193,,,,,,,,,,,43.37308,76.942782,https://2gis.com/firm/9429940001303419,branch
Школа им. Альжан Букарбайкызы,,Школы,"улица Наурыз, 62",,,,,,Карасайский район,Алматинская область,Казахстан,Пн: 09:00-18:00; Вт: 09:00-18:00; Ср: 09:00-18:00; Чт: 09:00-18:00; Пт: 09:00-18:00; Сб: 09:00-13:00,+05:00,3.0,42,,,,,,,,,,,,,,,,,,43.178612,76.535957,https://2gis.com/firm/70000001062986741,branch
Damu зияткерлік мектебі,частная школа,Школы,"улица Хан шатыр, 1",,050038,Акбулак м-н,Алатауский район,Алматы,,Алматы,Казахстан,Пн: 08:00-17:00; Вт: 08:00-17:00; Ср: 08:00-17:00; Чт: 08:00-17:00; Пт: 08:00-17:00,+05:00,3.3,50,87089062222,,,,,,https://instagram.com/damuschool.kz,,,,https://wa.me/77089062222,,,,,,,43.248101,76.824427,https://2gis.com/firm/70000001054278408,branch
Cosmo School,частная школа-гимназия,Школы; Дневные детские лагеря,"улица Сыргабекова, 9/1",1 этаж,050023,Баганашыл м-н,Бостандыкский район,Алматы,,Алматы,Казахстан,Пн: 08:00-18:00; Вт: 08:00-18:00; Ср: 08:00-18:00; Чт: 08:00-18:00; Пт: 08:00-18:00,+05:00,4.3,48,87071911699,,,,,http://cosmo-school.kz,https://instagram.com/cosmo.primaryschool,,https://facebook.com/profile.php?id=100064163799105,,https://wa.me/77071911699,,,,,,,43.196856,76.912186,https://2gis.com/firm/70000001047854453,branch
Общеобразовательная школа №129,,Школы,"микрорайон Айнабулак 3, 165",,050014,Айнабулак 3 м-н,Жетысуский район,Алматы,,Алматы,Казахстан,Пн: 08:00-19:10; Вт: 08:00-19:10; Ср: 08:00-19:10; Чт: 08:00-19:10; Пт: 08:00-19:10; Сб: 08:00-19:10,+05:00,3.0,32,87272326998,87272329786,87272342848 (приемная),,,,,,,,,,,,,,,43.327013,76.919332,https://2gis.com/firm/9429940000798771,branch
Общеобразовательная школа №50,,Школы,"улица Бурундайская, 44",,050011,,Турксибский район,Алматы,,Алматы,Казахстан,Пн: 08:00-17:30; Вт: 08:00-17:30; Ср: 08:00-17:30; Чт: 08:00-17:30; Пт: 08:00-17:30,+05:00,2.4,36,87272230260 (приемная),87272205105,,,,,https://instagram.com/almatyschool_50,,,,,,,,,,,43.343266,76.933857,https://2gis.com/firm/9429940000798812,branch
Элко,частная школа-детский сад,Школы; Частные детские сады,"Мамыр-4 микрорайон, 59",1 этаж,050036,Мамыр-4 м-н,Ауэзовский район,Алматы,,Алматы,Казахстан,Пн: 08:00-18:00; Вт: 08:00-18:00; Ср: 08:00-18:00; Чт: 08:00-18:00; Пт: 08:00-18:00,+05:00,5.0,2,87273800224,87272425321,,,,http://www.elko1.kz,https://instagram.com/elko.sadik,,,,,,,,,,,43.216999,76.849158,https://2gis.com/firm/70000001062156312,branch
Общеобразовательная школа №99,,Школы,"улица Иштвана Коныра, 53",,050019,,Медеуский район,Алматы,,Алматы,Казахстан,Пн: 08:00-18:00; Вт: 08:00-18:00; Ср: 08:00-18:00; Чт: 08:00-18:00; Пт: 08:00-18:00,+05:00,2.3,24,87273993227,,,,,,,,,,,,,,,,,43.277302,76.987308,https://2gis.com/firm/9429940000798844,branch
Общеобразовательная школа №164,,Школы,"улица Заводская, 98",,050048,Карасу м-н,Алатауский район,Алматы,,Алматы,Казахстан,Пн: 09:00-18:00; Вт: 09:00-18:00; Ср: 09:00-18:00; Чт: 09:00-18:00; Пт: 09:00-18:00; Сб: 09:00-14:00,+05:00,4.6,9,87272994401 (приемная),87272994303,,,,,https://instagram.com/mektep_164,,,,,,,,,,,43.336163,76.911789,https://2gis.com/firm/9429940000798793,branch
Асыл Арман,школа,Школы,"улица Алатау, 1а",,040916,,,,Карасайский район,Алматинская область,Казахстан,,+05:00,2.7,8,,,,,,,,,,,,,,,,,,43.233742,76.749275,https://2gis.com/firm/70000001075191339,branch
Средняя школа им А.Байжанова,,Школы,"улица Аубая Байгазиева, 91",,,,,Каскелен,Карасайский район,Алматинская область,Казахстан,Пн: 09:00-20:00; Вт: 09:00-20:00; Ср: 09:00-20:00; Чт: 09:00-20:00; Пт: 09:00-20:00,+05:00,3.7,7,87277121230,,,,,,,,,,,,,,,,,43.194418,76.622875,https://2gis.com/firm/70000001044109374,branch
Общеобразовательная школа №49,,Школы,"улица Кассина, 51",,050037,,Турксибский район,Алматы,,Алматы,Казахстан,Пн: 08:00-18:00; Вт: 08:00-18:00; Ср: 08:00-18:00; Чт: 08:00-18:00; Пт: 08:00-18:00,+05:00,3.5,37,87272995445 (приемная),,,,,http://49.alschool.kz,,,,,,,,,,,,43.318344,76.935389,https://2gis.com/firm/9429940001251476,branch
Общеобразовательная школа №74 им. С. Сейфуллина,,Школы,"улица Акан Серы, 150",,050037,,Турксибский район,Алматы,,Алматы,Казахстан,Пн: 08:00-19:00; Вт: 08:00-19:00; Ср: 08:00-19:00; Чт: 08:00-19:00; Пт: 08:00-19:00; Сб: 08:00-17:00,+05:00,2.1,42,87272945840 (приемная),,,,,,,,,,,,,,,,,43.310588,76.945017,https://2gis.com/firm/9429940000798828,branch
Общеобразовательная школа №190 им. Ш. Кудайбердыулы,,Школы,"улица Нуртазина, 49",,050045,Нурлытау м-н,Бостандыкский район,Алматы,,Алматы,Казахстан,Пн: 08:00-18:00; Вт: 08:00-18:00; Ср: 08:00-18:00; Чт: 08:00-18:00; Пт: 08:00-18:00,+05:00,3.5,34,87272977179 (приемная),87272977001,,,,http://190.alschool.kz,,,,,,,,,,,,43.157656,76.901159,https://2gis.com/firm/70000001018976781,branch
Средняя школа им. А.С. Пушкина с дошкольным мини-центром,,Школы,"улица Алимкулова, 78",,,,,Каскелен,Карасайский район,Алматинская область,Казахстан,Пн: 08:00-19:00; Вт: 08:00-19:00; Ср: 08:00-19:00; Чт: 08:00-19:00; Пт: 08:00-19:00,+05:00,2.5,10,87277127012 (приемная),,,,,,,,,,,,,,,,,43.198393,76.608648,https://2gis.com/firm/70000001044246906,branch
Школа-гимназия №59,,Школы,"улица Тлеуберды Сауранбаева, 12а",,050011,,Турксибский район,Алматы,,Алматы,Казахстан,Пн: 08:00-19:15; Вт: 08:00-19:15; Ср: 08:00-19:15; Чт: 08:00-19:15; Пт: 08:00-19:15; Сб: 08:00-19:15,+05:00,4.4,38,87272995297 (приемная),,,,,,,,,,,,,,,,,43.334568,76.948278,https://2gis.com/firm/9429940000838134,branch
Келешек,частная школа,Школы,"бульвар Бухар жырау, 50Б",1 этаж,050040,,Бостандыкский район,Алматы,,Алматы,Казахстан,"Пн: 10:00-12:30, 13:00-19:20; Вт: 10:00-12:30, 13:00-18:00; Ср: 10:00-12:30, 13:00-18:00; Чт: 10:00-12:30, 13:00-18:00; Пт: 10:00-12:30, 13:00-18:00 (летнее время: пн-пт 10:00-16:00)",+05:00,3.3,8,87272483747,87756269602,87475443601,,,,https://instagram.com/fizmat.school.keleshek,,,,https://wa.me/77756269602,https://wa.me/77475443601,,,,,,43.230068,76.91273,https://2gis.com/firm/9429940000796762,branch
Dana Sсhool,частная школа,Школы,"СТ Комета, 18",,,ПКСО Комета м-н,,Каскелен,Карасайский район,Алматинская область,Казахстан,Пн: 08:00-18:00; Вт: 08:00-18:00; Ср: 08:00-18:00; Чт: 08:00-18:00; Пт: 08:00-18:00,+05:00,5.0,2,87780004040,,,,,http://danaschool-kaskelen.kz,https://instagram.com/dana_school_kaskelen,,,,https://wa.me/77780004040,,,,,,,43.1658,76.609949,https://2gis.com/firm/70000001060986483,branch
Общеобразовательная школа №61,,Школы,"улица Льва Толстого, 20",,050011,,Турксибский район,Алматы,,Алматы,Казахстан,Пн: 08:00-19:00; Вт: 08:00-19:00; Ср: 08:00-19:00; Чт: 08:00-19:00; Пт: 08:00-19:00; Сб: 08:00-19:00,+05:00,3.5,27,,,,,,http://61.alschool.kz/,,,,,,,,,,,,43.330141,76.947777,https://2gis.com/firm/9429940000798819,branch
Общеобразовательная школа №17,,Школы,"улица Гёте, 177",,050056,,Турксибский район,Алматы,,Алматы,Казахстан,Пн: 08:00-19:00; Вт: 08:00-19:00; Ср: 08:00-19:00; Чт: 08:00-19:00; Пт: 08:00-19:00,+05:00,4.1,42,,,,,,,,,,,,,,,,,,43.314699,76.966153,https://2gis.com/firm/9429940000798794,branch
Общеобразовательная школа №160,,Школы,"улица Заводская, 96",,050048,Карасу м-н,Алатауский район,Алматы,,Алматы,Казахстан,Пн: 09:00-18:00; Вт: 09:00-18:00; Ср: 09:00-18:00; Чт: 09:00-18:00; Пт: 09:00-18:00,+05:00,2.3,33,87272994311 (приемная),87272994242,,,,,https://instagram.com/kgu_osh_160_almaty,,,,,,,,,,,43.335679,76.913035,https://2gis.com/firm/9429940000798791,branch
Общеобразовательная школа №177,,Школы,"микрорайон Кокжиек, 63",,050028,Кокжиек м-н,Жетысуский район,Алматы,,Алматы,Казахстан,Пн: 08:00-18:00; Вт: 08:00-18:00; Ср: 08:00-18:00; Чт: 08:00-18:00; Пт: 08:00-18:00,+05:00,3.7,59,87273803305 (приемная),,,,,,,,,,,,,,,,,43.357936,76.921568,https://2gis.com/firm/9429940001014202,branch
Общеобразовательная школа №85,,Школы,"улица Урицкого, 2а",,050028,Нижняя пятилетка м-н,Турксибский район,Алматы,,Алматы,Казахстан,Пн: 08:30-18:00; Вт: 08:30-18:00; Ср: 08:30-18:00; Чт: 08:30-18:00; Пт: 08:30-18:00; Сб: 08:30-14:00,+05:00,4.0,23,87272703993 (приемная),87272907874,87272906107,,,,,,,,,,,,,,,43.355415,76.952083,https://2gis.com/firm/9429940000798834,branch
Общеобразовательная школа №84,,Школы,"улица Нурсая, 56",,050028,Нижняя пятилетка м-н,Турксибский район,Алматы,,Алматы,Казахстан,Пн: 08:00-18:00; Вт: 08:00-18:00; Ср: 08:00-18:00; Чт: 08:00-18:00; Пт: 08:00-18:00,+05:00,4.4,63,87272783992,87272783998,87272783991 (библиотека),,,,,,,,,,,,,,,43.350736,76.956278,https://2gis.com/firm/9429940000966672,branch
Общеобразовательная средняя школа №28 с дошкольным мини-центром,,Школы,"улица Кудайбердиева, 149",,041609,,,,Талгарский район,Алматинская область,Казахстан,Пн: 08:00-18:30; Вт: 08:00-18:30; Ср: 08:00-18:30; Чт: 08:00-18:30; Пт: 08:00-18:30,+05:00,2.9,12,,,,,,,,,,,,,,,,,,43.297307,77.025686,https://2gis.com/firm/70000001025933706,branch
Средняя школа с. Абай с дошкольным мини-центром,,Школы,"улица Макатаева, 30",,040923,,,,Карасайский район,Алматинская область,Казахстан,Пн: 08:00-18:00; Вт: 08:00-18:00; Ср: 08:00-18:00; Чт: 08:00-18:00; Пт: 08:00-18:00; Сб: 08:00-18:00,+05:00,4.1,19,87273890604,87273047633,,,,,,,,,,,,,,,,43.218131,76.7521,https://2gis.com/firm/70000001019951702,branch
Средняя школа №23 Илийского района,,Школы,"улица Аэродромная, 4",,,Спецгородок ж/м,,,Илийский район,Алматинская область,Казахстан,Пн: 08:00-18:00; Вт: 08:00-18:00; Ср: 08:00-18:00; Чт: 08:00-18:00; Пт: 08:00-18:00,+05:00,4.4,8,,,,,,,,,,,,,,,,,,43.340714,76.882013,https://2gis.com/firm/70000001025998361,branch
Общеобразовательная школа №15 им. К. Азербаева,,Школы,"улица Азербаева, 1",,040708,Водник 1 м-н,,,Илийский район,Алматинская область,Казахстан,Пн: 08:00-18:00; Вт: 08:00-18:00; Ср: 08:00-18:00; Чт: 08:00-18:00; Пт: 08:00-18:00; Сб: 08:00-16:00,+05:00,3.5,36,87275233355,,,,,,,,,,,,,,,,,43.370088,76.852828,https://2gis.com/firm/9429940001257037,branch
Общеобразовательная школа №89,,Школы,"улица Поддубного, 155",,050054,Маяк м-н,Турксибский район,Алматы,,Алматы,Казахстан,"Пн: 08:00-19:00; Вт: 08:00-19:00; Ср: 08:00-19:00; Чт: 08:00-19:00; Пт: 08:00-19:00; Сб: 08:00-19:00 (администрация: пн-пт 9:00-18:00, перерыв 13:00-14:00)",+05:00,3.9,40,87272512829 (приемная),,,,,http://89.alschool.kz,https://instagram.com/almatyschool89,,,,,,,,,,,43.340841,76.989235,https://2gis.com/firm/9429940000798837,branch
Joo High School,,Школы; Помощь в обучении,"улица Байтурсынова, 2",,041609,,,,Талгарский район,Алматинская область,Казахстан,Пн: 10:00-19:00; Вт: 10:00-19:00; Ср: 10:00-19:00; Чт: 10:00-19:00; Пт: 10:00-19:00; Сб: 10:00-19:00; Вс: 10:00-19:00,+05:00,4.5,19,87717598406,,,,,http://joohs.kz,https://instagram.com/joo.besagash,,,,https://wa.me/77711230702,https://wa.me/77717598406,,,,https://youtube.com/c/JooKz,,43.299028,77.047597,https://2gis.com/firm/70000001081280033,branch
Голубой парус,школа-детский сад,Школы; Частные детские сады,"улица Гёте, 396а",,050054,,Турксибский район,Алматы,,Алматы,Казахстан,Пн: 08:00-19:00; Вт: 08:00-19:00; Ср: 08:00-19:00; Чт: 08:00-19:00; Пт: 08:00-19:00,+05:00,4.4,25,87272233667,87272233904,,,,http://bluesail.kz,https://instagram.com/blue_sail_goethe,,,,,,,,,,,43.334756,76.968894,https://2gis.com/firm/9429940000794494,branch
Общеобразовательная школа №115 им. Д. Бабаева,,Школы,"Алтай 1 микрорайон, 28",,050039,Маяк м-н,Турксибский район,Алматы,,Алматы,Казахстан,"Пн: 08:00-13:00, 14:00-18:00; Вт: 08:00-13:00, 14:00-18:00; Ср: 08:00-13:00, 14:00-18:00; Чт: 08:00-13:00, 14:00-18:00; Пт: 08:00-13:00, 14:00-18:00; Сб: 08:00-13:00, 14:00-18:00",+05:00,2.6,19,87273859253 (приемная),87272512911,,,,,,,,,,,,,,,,43.344312,76.986842,https://2gis.com/firm/9429940000798762,branch
Общеобразовательная средняя школа №17,,Школы,"улица Томаровского, 9",,,,,,Талгарский район,Алматинская область,Казахстан,,+05:00,2.9,21,,,,,,,https://instagram.com/skola17talgar,,,,,,,,,,,43.384801,77.127837,https://2gis.com/firm/70000001080063559,branch
Келешек,школа,Школы,"улица Сарыарка, 9",,,,,,Илийский район,Алматинская область,Казахстан,,+05:00,5.0,1,87473696515,,,,,,https://instagram.com/keleshek.zhkm,,,,,,,,,,,43.391439,76.847636,https://2gis.com/firm/70000001076389278,branch
Общеобразовательная школа №10,с. Белбулак,Школы,"улица Алтынсарина, 16",,,,,,Талгарский район,Алматинская область,Казахстан,Пн: 08:00-19:00; Вт: 08:00-19:00; Ср: 08:00-19:00; Чт: 08:00-19:00; Пт: 08:00-19:00,+05:00,1.4,3,87277443396,,,,,,,,,,,,,,,,,43.312484,77.108115,https://2gis.com/firm/70000001035961412,branch
EdAccess,Британский аккредитованный учебный и экзаменационный центр,Школы; Языковые школы; Помощь в обучении; Обучение за рубежом; Центры раннего развития детей,"проспект Достык, 210 блок А",6 этаж,050051,,Медеуский район,Алматы,,Алматы,Казахстан,Пн: 10:00-19:00; Вт: 10:00-19:00; Ср: 10:00-19:00; Чт: 10:00-19:00; Пт: 10:00-19:00; Сб: 10:00-19:00,+05:00,3.7,29,87777664020,,,,,http://edaccess.kz,https://instagram.com/british_school_kz,,https://facebook.com/EdAccess.kz,,,,,,,,,43.22961,76.960774,https://2gis.com/firm/70000001045272659,branch
Zerdesh мектебі,частная казахская школа,Школы,"улица Абишева, 26",,050006,Калкаман-2 м-н,Наурызбайский район,Алматы,,Алматы,Казахстан,Пн: 08:30-18:00; Вт: 08:30-18:00; Ср: 08:30-18:00; Чт: 08:30-18:00; Пт: 08:30-18:00,+05:00,2.7,7,87074763281,,,shkolazerdesh@mail.ru,,http://zerdesh.kz/,https://instagram.com/zerdesh.mektebi,,,,https://wa.me/77028371551,,,,,,,43.234982,76.804604,https://2gis.com/firm/70000001069142967,branch
Общеобразовательная средняя школа №26 с дошкольным мини-центром,,Школы,"улица Кирова, 24",,041613,,,,Талгарский район,Алматинская область,Казахстан,Пн: 09:00-18:00; Вт: 09:00-18:00; Ср: 09:00-18:00; Чт: 09:00-18:00; Пт: 09:00-18:00,+05:00,3.4,3,87277475040,,,,,,,,,,,,,,,,,43.441934,77.042164,https://2gis.com/firm/70000001024450674,branch
Средняя школа №197,,Школы,"улица Инкардария, 7а",,,Сулусай м-н,Медеуский район,Алматы,,Алматы,Казахстан,Пн: 07:30-19:00; Вт: 07:30-19:00; Ср: 07:30-19:00; Чт: 07:30-19:00; Пт: 07:30-19:00,+05:00,3.7,3,87051886460,,,,,,,,,,,,,,,,,43.226871,77.049255,https://2gis.com/firm/70000001025172485,branch
Средняя школа №31 им. Аль-Фараби,,Школы,"улица Жылкыбай, 153",,041626,,,,Талгарский район,Алматинская область,Казахстан,Пн: 09:00-18:00; Вт: 09:00-18:00; Ср: 09:00-18:00; Чт: 09:00-18:00; Пт: 09:00-18:00,+05:00,2.4,26,87277456056 (приемная),,,,,,,,,,,,,,,,,43.316516,77.054429,https://2gis.com/firm/9429940001011260,branch
Средняя школа гимназия №45 Талгарского района,,Школы,"улица Хамраева, 30",,041609,,,,Талгарский район,Алматинская область,Казахстан,Пн: 07:00-18:45; Вт: 07:00-18:45; Ср: 07:00-18:45; Чт: 07:00-18:45; Пт: 07:00-18:45,+05:00,3.8,16,,,,,,,,,,,,,,,,,,43.305201,77.043191,https://2gis.com/firm/70000001023005476,branch
QBIS,международная школа,Школы,"улица Тлендиева, 2",,,,,Каскелен,Карасайский район,Алматинская область,Казахстан,"Пн: 08:00-13:00, 14:00-18:00; Вт: 08:00-13:00, 14:00-18:00; Ср: 08:00-13:00, 14:00-18:00; Чт: 08:00-13:00, 14:00-18:00; Пт: 08:00-13:00, 14:00-18:00; Сб: 08:00-13:00, 14:00-18:00",+05:00,5.0,12,87056272746,,,,,,https://instagram.com/qbis.kz,,,,https://wa.me/77056272746,,,,,,,43.201868,76.651191,https://2gis.com/firm/70000001078687060,branch
Немере,частная школа,Школы,"улица Аймауытова, 18",,,,,Каскелен,Карасайский район,Алматинская область,Казахстан,Пн: 08:00-17:00; Вт: 08:00-17:00; Ср: 08:00-17:00; Чт: 08:00-17:00; Пт: 08:00-17:00,+05:00,3.9,29,,,,,,,,,,,,,,,,,,43.195428,76.623599,https://2gis.com/firm/70000001044298495,branch
Anisa Primary School,частная школа,Школы,"улица Жибек Жолы, 8а",,,,,,Талгарский район,Алматинская область,Казахстан,Пн: 08:00-17:00; Вт: 08:00-17:00; Ср: 08:00-17:00; Чт: 08:00-17:00; Пт: 08:00-17:00,+05:00,3.3,13,87753217404,,,,,,https://instagram.com/anisa_school_almaty,,,,https://wa.me/77753217404,,,,,,,43.303643,77.070638,https://2gis.com/firm/70000001064810930,branch
Средняя школа №29,,Школы,"улица Ломоносова, 7Б",,041609,,,,Талгарский район,Алматинская область,Казахстан,Пн: 08:00-19:00; Вт: 08:00-19:00; Ср: 08:00-19:00; Чт: 08:00-19:00; Пт: 08:00-19:00,+05:00,2.2,38,87277456826,,,,,,,,,,,,,,,,,43.299317,77.048702,https://2gis.com/firm/9429940001021548,branch
Средняя школа им. В.Г.Белинского,,Школы,"улица Абен Омерали, 84",,,,,Каскелен,Карасайский район,Алматинская область,Казахстан,Пн: 08:00-19:00; Вт: 08:00-19:00; Ср: 08:00-19:00; Чт: 08:00-19:00; Пт: 08:00-19:00; Сб: 08:00-19:00,+05:00,3.0,21,,,,,,,,,,,,,,,,,,43.19593,76.620355,https://2gis.com/firm/70000001044109390,branch
Частная образовательная школа Дана,,Школы,"улица Райымбека, 113",,040700,Гульдер м-н,,,Илийский район,Алматинская область,Казахстан,Пн: 08:00-17:00; Вт: 08:00-17:00; Ср: 08:00-17:00; Чт: 08:00-17:00; Пт: 08:00-17:00,+05:00,4.4,114,87750074862 (контакт-центр),,,,,http://danaschool.edu.kz/,https://instagram.com/dana_school_almaty,,,,https://wa.me/77473700333,,,,,,,43.399748,77.024573,https://2gis.com/firm/70000001019977638,branch
№212 мектеп-гимназия,,Школы,,,,Коккайнар м-н,Алатауский район,Алматы,,Алматы,Казахстан,,+05:00,4.8,7,87772861306,,,,,,,,,,,,,,,,,43.324709,76.83869,https://2gis.com/firm/70000001089871572,branch
Новое начало,школа,Школы,"улица Гёте, 267",,050054,,Турксибский район,Алматы,,Алматы,Казахстан,Пн: 08:30-17:00; Вт: 08:30-17:00; Ср: 08:30-17:00; Чт: 08:30-17:00; Пт: 08:30-17:00,+05:00,4.7,20,87272510213,87272510296,,,,,,,,,,,,,,,,43.328304,76.968279,https://2gis.com/firm/9429940000795399,branch
Средняя школа №4 с. Жапек батыр,,Школы,"улица Абая, 17",,040717,,,,Илийский район,Алматинская область,Казахстан,Пн: 08:00-19:00; Вт: 08:00-19:00; Ср: 08:00-19:00; Чт: 08:00-19:00; Пт: 08:00-19:00,+05:00,4.4,15,,,,,,,,,,,,,,,,,,43.416941,76.897428,https://2gis.com/firm/9429940000983853,branch
Средняя школа с. Береке,,Школы,"улица Астана, 40в",,,,,,Карасайский район,Алматинская область,Казахстан,Пн: 08:00-18:00; Вт: 08:00-18:00; Ср: 08:00-18:00; Чт: 08:00-18:00; Пт: 08:00-18:00,+05:00,3.8,4,87277131192,87277131195,,,,,,,,,,,,,,,,43.383764,76.709196,https://2gis.com/firm/70000001036722571,branch
Средняя школа №50 Илийского района,,Школы,"улица Адилет, 1",,,,,,Илийский район,Алматинская область,Казахстан,Пн: 09:00-18:00; Вт: 09:00-18:00; Ср: 09:00-18:00; Чт: 09:00-18:00; Пт: 09:00-18:00,+05:00,3.9,3,,,,,,,https://instagram.com/ile_50_school,,,,,,,,,,,43.540873,76.92364,https://2gis.com/firm/70000001065705431,branch
Данашым,физико-математическая школа,Школы,"улица Азербаева, 69",,050040,Горный гигант м-н,Медеуский район,Алматы,,Алматы,Казахстан,"Пн: 08:00-13:00, 14:00-16:00; Вт: 08:00-13:00, 14:00-16:00; Ср: 08:00-13:00, 14:00-16:00; Чт: 08:00-13:00, 14:00-16:00; Пт: 08:00-13:00, 14:00-16:00",+05:00,4.3,16,87272718042,87474809219,,,,,,,,,,,,,,,,43.215535,76.95022,https://2gis.com/firm/9429940000794731,branch
Beta High School,частная школа,Школы,"улица Каныша Сатпаева, 30/2",1 этаж,050040,,Бостандыкский район,Алматы,,Алматы,Казахстан,Пн: 09:00-18:00; Вт: 09:00-18:00; Ср: 09:00-18:00; Чт: 09:00-18:00; Пт: 09:00-18:00,+05:00,3.4,3,87471239888,,,,,,https://instagram.com/beta_high_school,,,,https://wa.me/77471239888,,,,,,,43.23442,76.922605,https://2gis.com/firm/70000001078732116,branch
Средняя школа №19 Илийского района,,Школы,"улица Молдагуловой, 14",,040729,,,,Илийский район,Алматинская область,Казахстан,Пн: 08:00-18:00; Вт: 08:00-18:00; Ср: 08:00-18:00; Чт: 08:00-18:00; Пт: 08:00-18:00,+05:00,4.0,14,,,,,,,,,,,,,,,,,,43.41347,76.91385,https://2gis.com/firm/70000001022258089,branch
Средняя школа им. К. Азербаева,,Школы,"улица Туркестан, 4",,040923,,,,Карасайский район,Алматинская область,Казахстан,Пн: 08:00-19:30; Вт: 08:00-19:30; Ср: 08:00-19:30; Чт: 08:00-19:30; Пт: 08:00-19:30,+05:00,3.9,12,,,,,,,,,,,,,,,,,,43.198781,76.749607,https://2gis.com/firm/70000001023679364,branch
Средняя школа №51 Илийского района,,Школы,"1 квартал, 203",,,,,,Илийский район,Алматинская область,Казахстан,Пн: 09:00-18:00; Вт: 09:00-18:00; Ср: 09:00-18:00; Чт: 09:00-18:00; Пт: 09:00-18:00,+05:00,2.6,4,,,,,,,https://instagram.com/51ortamektep,,,,,,,,,,,43.432409,76.886015,https://2gis.com/firm/70000001066085773,branch
Общеобразовательная школа №32,с. Белбулак,Школы,"улица Алиева, 54",,041608,,,,Талгарский район,Алматинская область,Казахстан,Пн: 08:00-19:00; Вт: 08:00-19:00; Ср: 08:00-19:00; Чт: 08:00-19:00; Пт: 08:00-19:00; Сб: 08:00-13:00,+05:00,2.1,11,87277443029,87277443030,87277443028,,,,,,,,,,,,,,,43.312106,77.09869,https://2gis.com/firm/70000001028126781,branch
Средняя школа №44,,Школы,"улица Байтерек, 97а",,040729,,,,Илийский район,Алматинская область,Казахстан,Пн: 08:00-19:00; Вт: 08:00-19:00; Ср: 08:00-19:00; Чт: 08:00-19:00; Пт: 08:00-19:00; Сб: 08:00-14:00,+05:00,3.3,20,87275239900,,,,,,,,,,,,,,,,,43.443421,76.923071,https://2gis.com/firm/70000001030313780,branch
Общеобразовательная школа №7,,Школы,"улица Жетбаева, 15",,,Алатау м-н,Медеуский район,Алматы,,Алматы,Казахстан,Пн: 09:00-17:00; Вт: 09:00-17:00; Ср: 09:00-17:00; Чт: 09:00-17:00; Пт: 09:00-17:00,+05:00,3.0,16,87273866483,87273866454,87273866492,,,http://s7.ucoz.kz,,,,,,,,,,,,43.359415,77.141732,https://2gis.com/firm/70000001042204316,branch
Общеобразовательная средняя школа №22,,Школы,"улица Тлендиева, 1",,,,,,Талгарский район,Алматинская область,Казахстан,,+05:00,3.3,4,,,,,,,,,,,,,,,,,,43.404833,77.143076,https://2gis.com/firm/70000001077298395,branch
Средняя школа им. Райымбека Батыра,,Школы,"улица Токатаева, 19",,,,,Есик,Енбекшиказахский район,Алматинская область,Казахстан,Пн: 08:00-18:00; Вт: 08:00-18:00; Ср: 08:00-18:00; Чт: 08:00-18:00; Пт: 08:00-18:00,+05:00,3.9,11,87277521120,,,,,,,,,,,,,,,,,43.342776,77.479258,https://2gis.com/firm/70000001059703774,branch
Средняя школа с. Кокозек,,Школы,"улица Акымжанова, 16",,040912,,,,Карасайский район,Алматинская область,Казахстан,Пн: 08:00-19:20; Вт: 08:00-19:20; Ср: 08:00-19:20; Чт: 08:00-19:20; Пт: 08:00-19:20; Сб: 08:00-19:20,+05:00,3.7,9,,,,,,,,,,,,,,,,,,43.351925,76.772635,https://2gis.com/firm/70000001023967694,branch
Средняя школа №13,,Школы,"улица Казыбек би, 1",,041626,Арман м-н,,,Талгарский район,Алматинская область,Казахстан,Пн: 09:00-18:00; Вт: 09:00-18:00; Ср: 09:00-18:00; Чт: 09:00-18:00; Пт: 09:00-18:00; Сб: 09:00-13:00,+05:00,4.0,15,,,,,,,,,,,,,,,,,,43.323985,77.064986,https://2gis.com/firm/9429940001668532,branch
Средняя школа №48 им. Т.Айбергенова,,Школы,"улица Кобыланды батыра, 54",,,,,,Илийский район,Алматинская область,Казахстан,Пн: 07:00-19:30; Вт: 07:00-19:30; Ср: 07:00-19:30; Чт: 07:00-19:30; Пт: 07:00-19:30,+05:00,4.8,4,87275229095,87275239096,,,,,,,,,,,,,,,,43.381337,76.667636,https://2gis.com/firm/70000001060037627,branch
Alliance school,частная школа,Школы,"улица Айтеке би, 36",,050010,,Медеуский район,Алматы,,Алматы,Казахстан,Пн: 08:30-18:00; Вт: 08:30-18:00; Ср: 08:30-18:00; Чт: 08:30-18:00; Пт: 08:30-18:00,+05:00,5.0,2,87011689996,,,,,,https://instagram.com/alliance_school_almaty,,https://facebook.com/allianceschool,,https://wa.me/77011689996,,,,,,,43.259081,76.959038,https://2gis.com/firm/70000001067087707,branch
Средняя школа №43,,Школы,"улица Ереванская, 3а",,,,,,Илийский район,Алматинская область,Казахстан,Пн: 08:00-19:00; Вт: 08:00-19:00; Ср: 08:00-19:00; Чт: 08:00-19:00; Пт: 08:00-19:00,+05:00,1.8,9,87275239801,,,,,,,,,,,,,,,,,43.407759,76.922268,https://2gis.com/firm/70000001029168464,branch
Richmond School,частная школа,Школы,"улица Кыз Жибек, 149",,050020,Кок-Тобе 2 м-н,Медеуский район,Алматы,,Алматы,Казахстан,Пн: 08:30-17:00; Вт: 08:30-17:00; Ср: 08:30-17:00; Чт: 08:30-17:00; Пт: 08:30-17:00,+05:00,4.0,20,87771888989,,,,,http://richmondschool.kz,https://instagram.com/richmondschool.kz,,https://facebook.com/richmondkzschool,,https://wa.me/77771888989,,,,https://t.me/+77771888989,,,43.211058,76.975343,https://2gis.com/firm/70000001068618997,branch
Общеобразовательная школа №7,,Школы,"улица Титова, 16",,040700,,,,Илийский район,Алматинская область,Казахстан,Пн: 09:00-18:00; Вт: 09:00-18:00; Ср: 09:00-18:00; Чт: 09:00-18:00; Пт: 09:00-18:00,+05:00,1.6,12,87275220185,87275220148,,,,,,,,,,,,,,,,43.417698,77.017536,https://2gis.com/firm/9429940000971022,branch
КурсAnt School,​частная школа,Школы,"улица Абая, 50Б",,,,,Каскелен,Карасайский район,Алматинская область,Казахстан,Пн: 09:00-19:00; Вт: 09:00-19:00; Ср: 09:00-19:00; Чт: 09:00-19:00; Пт: 09:00-19:00; Сб: 09:00-14:00,+05:00,4.4,16,87006132277,,,,,,https://instagram.com/edukursant.kz,,,,https://wa.me/77006132277,,,,,,,43.201633,76.618933,https://2gis.com/firm/70000001044464532,branch
АйСаф,частная школа для девочек,Школы,"улица Алтынсарина, 300",,040910,,,,Карасайский район,Алматинская область,Казахстан,Пн: 09:00-17:00; Вт: 09:00-17:00; Ср: 09:00-17:00; Чт: 09:00-17:00; Пт: 09:00-17:00,+05:00,4.4,59,87078081148,,,,,,https://instagram.com/aisaf.mektebi,,,,https://wa.me/77078081148,,,,https://t.me/+77078081148,,,43.176947,76.788626,https://2gis.com/firm/70000001037592170,branch
Образовательная школа № 9 им. Т. Рыскулова,,Школы,"улица Гагарина, 59",,,,,Талгар,Талгарский район,Алматинская область,Казахстан,Пн: 09:00-18:00; Вт: 09:00-18:00; Ср: 09:00-18:00; Чт: 09:00-18:00; Пт: 09:00-18:00,+05:00,,,87277422762,,,,,,,,,,,,,,,,,43.298781,77.237366,https://2gis.com/firm/70000001045391503,branch
Мейір,частная школа-гимназия,Школы; Гимназии,"трасса Алматы-Кокпек-Чунджа-Коктал, 3",,,,,Алматы,Енбекшиказахский район,Алматы,Казахстан,Пн: 08:00-18:00; Вт: 08:00-18:00; Ср: 08:00-18:00; Чт: 08:00-18:00; Пт: 08:00-18:00,+05:00,4.8,11,87075056566,,,,,,https://instagram.com/meyir_private_school,,,,,,,,,,,43.408999,77.243934,https://2gis.com/firm/70000001067752206,branch
Средняя школа №18 им. Ы. Ногайбаева,,Школы,"улица Дауылбаева, 1",,,,,,Илийский район,Алматинская область,Казахстан,Пн: 08:00-18:00; Вт: 08:00-18:00; Ср: 08:00-18:00; Чт: 08:00-18:00; Пт: 08:00-18:00,+05:00,3.7,2,87275248129,,,,,,,,,,,,,,,,,43.517644,76.828577,https://2gis.com/firm/70000001057671164,branch
Cosmo International School,международная школа,Школы,"улица Кунаева, 201Б",,,,,Талгар,Талгарский район,Алматинская область,Казахстан,Пн: 08:00-17:00; Вт: 08:00-17:00; Ср: 08:00-17:00; Чт: 08:00-17:00; Пт: 08:00-17:00,+05:00,2.1,11,87053353589,,,,,,https://instagram.com/cosmo_international_school,,,,,,,,,,,43.304136,77.214197,https://2gis.com/firm/70000001078759822,branch
SANA School,,Школы,"улица Навои, 208/7",,050043,,Бостандыкский район,Алматы,,Алматы,Казахстан,Пн: 09:00-18:00; Вт: 09:00-18:00; Ср: 09:00-18:00; Чт: 09:00-18:00; Пт: 09:00-18:00,+05:00,5.0,1,87713517929,,,,,,https://instagram.com/sanaschool.oral,,,,,,,,,,,43.205505,76.886393,https://2gis.com/firm/70000001088791826,branch
Средняя школа им. Алга,,Школы,"улица Солтанбай, 57",,,,,,Енбекшиказахский район,Алматинская область,Казахстан,,+05:00,,,,,,,,,,,,,,,,,,,,43.451193,77.176855,https://2gis.com/firm/70000001077342110,branch
Средняя школа №35,,Школы,"улица Талканбай, 7",,,,,,Илийский район,Алматинская область,Казахстан,Пн: 08:00-20:00; Вт: 08:00-20:00; Ср: 08:00-20:00; Чт: 08:00-20:00; Пт: 08:00-20:00; Сб: 08:00-20:00; Вс: 08:00-20:00,+05:00,,,87275255438,,,,,,https://instagram.com/school35_ile,,,,,,,,,,,43.611284,77.024346,https://2gis.com/firm/70000001083044361,branch
Ганибет,частная школа-гимназия,Школы; Центры раннего развития детей,"улица Макатаева, 97",1-2 этаж,050004,,Алмалинский район,Алматы,,Алматы,Казахстан,Пн: 08:00-19:00; Вт: 08:00-19:00; Ср: 08:00-19:00; Чт: 08:00-19:00; Пт: 08:00-19:00,+05:00,4.3,21,87754220931,,,,,,https://instagram.com/ganibetalmaty,,,,https://wa.me/77024033344,,,,,,,43.263798,76.937782,https://2gis.com/firm/70000001038817637,branch
Средняя школа №37 Илийского района,,Школы,"улица Карсакбаева, 16а",,040717,,,,Илийский район,Алматинская область,Казахстан,Пн: 08:00-17:00; Вт: 08:00-17:00; Ср: 08:00-17:00; Чт: 08:00-17:00; Пт: 08:00-17:00,+05:00,4.9,3,87014801765,,,,,http://37-ileaud.mektebi.kz,,,,,,,,,,,,43.450411,76.872929,https://2gis.com/firm/70000001036911787,branch
Общеобразовательная школа №5 им. М. Ауезова,,Школы,"улица Зайсан, 2",,,,,Талгар,Талгарский район,Алматинская область,Казахстан,Пн: 08:00-18:30; Вт: 08:00-18:30; Ср: 08:00-18:30; Чт: 08:00-18:30; Пт: 08:00-18:30,+05:00,2.4,3,87277428369,,,,,,,,,,,,,,,,,43.318785,77.243153,https://2gis.com/firm/70000001045516215,branch
Средняя общеобразовательная школа №38 ,начальная школа,Школы,"улица Смыкова, 11/1",,,,,,Талгарский район,Алматинская область,Казахстан,Пн: 08:00-18:00; Вт: 08:00-18:00; Ср: 08:00-18:00; Чт: 08:00-18:00; Пт: 08:00-18:00; Сб: 08:00-18:00,+05:00,,,87277441724,,,,,,,,,,,,,,,,,43.342518,77.230598,https://2gis.com/firm/70000001088091566,branch
Общеобразовательная начальная школа с. Булакты,,Школы,"улица Наурыз, 13",,040923,,,,Карасайский район,Алматинская область,Казахстан,Пн: 09:00-19:00; Вт: 09:00-19:00; Ср: 09:00-19:00; Чт: 09:00-19:00; Пт: 09:00-19:00; Сб: 09:00-19:00,+05:00,1.3,1,87273047377,,,,,,,,,,,,,,,,,43.220937,76.743522,https://2gis.com/firm/70000001032544618,branch
Общеобразовательная средняя школа №49 им. Ы. Алтынсарина,,Школы,"улица Рыскулова, 183Б",,,,,Талгар,Талгарский район,Алматинская область,Казахстан,Пн: 08:00-18:00; Вт: 08:00-18:00; Ср: 08:00-18:00; Чт: 08:00-18:00; Пт: 08:00-18:00; Сб: 08:00-18:00,+05:00,4.2,6,87277428572,,,,,,,,,,,,,,,,,43.321054,77.246171,https://2gis.com/firm/70000001045359588,branch
Средняя школа №9,,Школы,"улица Бейбитшилик, 14Б",,,,,,Илийский район,Алматинская область,Казахстан,Пн: 08:00-18:00; Вт: 08:00-18:00; Ср: 08:00-18:00; Чт: 08:00-18:00; Пт: 08:00-18:00,+05:00,3.1,5,87275270401,87752763004,,,,,,,,,,,,,,,,43.481483,77.041954,https://2gis.com/firm/70000001045416487,branch
Общеобразовательная средняя школа №18,,Школы,"улица Абая, 6",,,,,,Талгарский район,Алматинская область,Казахстан,,+05:00,,,,,,,,,,,,,,,,,,,,43.280508,77.205693,https://2gis.com/firm/70000001077291936,branch
Средняя школа села Батан,,Школы,"улица М. Саламатова, 1г",,,,,,Карасайский район,Алматинская область,Казахстан,Пн: 08:00-18:00; Вт: 08:00-18:00; Ср: 08:00-18:00; Чт: 08:00-18:00; Пт: 08:00-18:00,+05:00,3.5,2,87273081045,,,,,,,,,,,,,,,,,43.28517,76.659387,https://2gis.com/firm/70000001064289823,branch
Общеобразовательная средняя школа №39,,Школы,"улица Новостройка, 39",,,,,,Талгарский район,Алматинская область,Казахстан,,+05:00,4.9,5,,,,,,,,,,,,,,,,,,43.392469,77.181385,https://2gis.com/firm/70000001077292357,branch
Средняя школа № 45,,Школы,"улица Жумбактас, 109",,,,,,Илийский район,Алматинская область,Казахстан,Пн: 08:00-14:05; Вт: 08:00-14:05; Ср: 08:00-14:05; Чт: 08:00-14:05; Пт: 08:00-14:05; Сб: 08:00-14:05; Вс: 08:00-14:05,+05:00,4.6,6,,,,,,,,,,,,,,,,,,43.465313,76.796981,https://2gis.com/firm/70000001032071067,branch
Alma School,школа предпринимательского образования,Школы,"улица Жумалиева, 55/1",,050026,,Алмалинский район,Алматы,,Алматы,Казахстан,Пн: 08:00-17:00; Вт: 08:00-17:00; Ср: 08:00-17:00; Чт: 08:00-17:00; Пт: 08:00-17:00,+05:00,,,87072997007,,,,,,https://instagram.com/alma_school.kz,,https://facebook.com/almaschoolMAB,,https://wa.me/77072997007,,,,,,,43.256209,76.9122,https://2gis.com/firm/70000001088747135,branch
Maqsat,школа-лицей,Школы; Лицеи,"улица Кыран, 11",,050006,Мамыр м-н,Наурызбайский район,Алматы,,Алматы,Казахстан,Пн: 08:30-17:00; Вт: 08:30-17:00; Ср: 08:30-17:00; Чт: 08:30-17:00; Пт: 08:30-17:00,+05:00,3.7,24,87071650118,87273858482,87051648453,,,http://maqsat-lyceum.kz,https://instagram.com/maqsat_lyceum,,https://facebook.com/maqsatlyceumkz,,https://wa.me/77071650118,,,,,,,43.206143,76.83126,https://2gis.com/firm/70000001067001472,branch
Средняя школа с. Жанатурмыс,,Школы,"улица Алтынсарина, 37",,040910,,,,Карасайский район,Алматинская область,Казахстан,Пн: 08:00-18:00; Вт: 08:00-18:00; Ср: 08:00-18:00; Чт: 08:00-18:00; Пт: 08:00-18:00,+05:00,3.8,8,87273051193,,,,,,,,,,,,,,,,,43.186013,76.781949,https://2gis.com/firm/70000001022467474,branch
Средняя школа им. Х. Абдуллина,,Школы,"Газамов улица, 41а",,,,,,Енбекшиказахский район,Алматинская область,Казахстан,Пн: 08:00-18:00; Вт: 08:00-18:00; Ср: 08:00-18:00; Чт: 08:00-18:00; Пт: 08:00-18:00; Сб: 08:00-18:00,+05:00,3.0,3,,,,,,,,,,,,,,,,,,43.482225,77.396963,https://2gis.com/firm/70000001077337806,branch
Общеобразовательная средняя школа №14,,Школы,"улица Ленина, 32",,,,,,Талгарский район,Алматинская область,Казахстан,,+05:00,3.0,2,,,,,,,,,,,,,,,,,,43.629496,77.257958,https://2gis.com/firm/70000001077297028,branch
Орлеу,частная школа,Школы,"улица Самен батыра, 106",,040700,Куат м-н,,,Илийский район,Алматинская область,Казахстан,Пн: 08:00-17:00; Вт: 08:00-17:00; Ср: 08:00-17:00; Чт: 08:00-17:00; Пт: 08:00-17:00,+05:00,,,87077949614,87784629993,,,,,,,,,,,,,,,,43.407164,77.019917,https://2gis.com/firm/70000001076635349,branch
Каргалинская средняя школа №3,,Школы,"улица Досымбетова, 4",,,,,,Жамбылский район,Алматинская область,Казахстан,Пн: 08:00-19:30; Вт: 08:00-19:30; Ср: 08:00-19:30; Чт: 08:00-19:30; Пт: 08:00-19:00; Сб: 08:00-14:30,+05:00,5.0,5,,,,,,,,,,,,,,,,,,43.158728,76.419319,https://2gis.com/firm/70000001054847808,branch
Средняя школа с. Енбекши,,Школы,"улица Райымбека, 2",,,,,,Карасайский район,Алматинская область,Казахстан,,+05:00,4.6,3,,,,,,,,,,,,,,,,,,43.231711,76.505771,https://2gis.com/firm/70000001082748001,branch
Общеобразовательная средняя школа №2 им. Сакена Сейфуллина,,Школы,"улица Наурызбай батыра, 1",,,,,Талгар,Талгарский район,Алматинская область,Казахстан,Пн: 08:00-18:00; Вт: 08:00-18:00; Ср: 08:00-18:00; Чт: 08:00-18:00; Пт: 08:00-18:00,+05:00,3.4,7,,,,,,,,,,,,,,,,,,43.308981,77.229227,https://2gis.com/firm/70000001044828223,branch
Средняя школа №16 с дошкольным мини-центром,,Школы,"улица Достык, 12",,040723,,,,Илийский район,Алматинская область,Казахстан,Пн: 08:00-20:00; Вт: 08:00-20:00; Ср: 08:00-20:00; Чт: 08:00-20:00; Пт: 08:00-20:00; Сб: 08:00-15:00,+05:00,2.6,4,,,,,,,,,,,,,,,,,,43.457941,76.724266,https://2gis.com/firm/70000001036545397,branch
Средняя школа № 12 с. Байсерке,,Школы,"улица Аркабая, 271",,,,,,Илийский район,Алматинская область,Казахстан,,+05:00,4.9,11,,,,,,,,,,,,,,,,,,43.503663,77.039868,https://2gis.com/firm/70000001077343179,branch
Үшқоңыр ,​частная школа,Школы; Центры раннего развития детей,"улица Токсейтова, 75",,,,,,Жамбылский район,Алматинская область,Казахстан,Пн: 09:00-18:00; Вт: 09:00-18:00; Ср: 09:00-18:00; Чт: 09:00-18:00; Пт: 09:00-18:00,+05:00,,,87013572279,87086125239,,,,,https://instagram.com/ushkonyrmektebi,,,,https://wa.me/77013572279,https://wa.me/77086125239,,,,,,43.157716,76.438013,https://2gis.com/firm/70000001084101750,branch
Школа-гимназия №34 им. К.Абдигуловой,,Школы,"улица Маметовой, 1",,,,,,Талгарский район,Алматинская область,Казахстан,Пн: 08:00-19:00; Вт: 08:00-19:00; Ср: 08:00-19:00; Чт: 08:00-19:00; Пт: 08:00-19:00; Сб: 08:00-19:00,+05:00,3.7,2,,,,,,,https://instagram.com/34_mektep_,,,,,,,,,,,43.306036,77.151714,https://2gis.com/firm/70000001067310568,branch
Средняя школа №55 Илийского района ,,Школы,"улица Акдала, 84",,,Шабыт м-н,,,Илийский район,Алматинская область,Казахстан,Пн: 07:00-18:00; Вт: 07:00-18:00; Ср: 07:00-18:00; Чт: 07:00-18:00; Пт: 07:00-18:00; Сб: 07:00-18:00,+05:00,5.0,1,87757272726,,,,,,https://instagram.com/55orta_mektep,,,,,,,,,,,43.472339,76.676734,https://2gis.com/firm/70000001081854926,branch
Средняя школа им. А. Карсакбаева,,Школы,"улица Ынтымак, 22",,,,,,Жамбылский район,Алматинская область,Казахстан,Пн: 08:00-18:00; Вт: 08:00-18:00; Ср: 08:00-18:00; Чт: 08:00-18:00; Пт: 08:00-18:00; Сб: 08:00-18:00,+05:00,4.1,6,87277044006,,,,,http://karsakbaev-zhambylaud.mektebi.kz,,,,,,,,,,,,43.235284,76.320751,https://2gis.com/firm/70000001077394853,branch
Общеобразовательная средняя школа №37 им. Ильяса Жансугурова,,Школы,"улица Сейфуллина, 48",,,,,,Талгарский район,Алматинская область,Казахстан,,+05:00,,,,,,,,,,,,,,,,,,,,43.584977,77.057458,https://2gis.com/firm/70000001077292993,branch
Flagman School,частная школа,Школы,"улица Лермонтова, 40",,,,,Талгар,Талгарский район,Алматинская область,Казахстан,"Пн: 08:00-13:00, 14:00-19:00; Вт: 08:00-13:00, 14:00-19:00; Ср: 08:00-13:00, 14:00-19:00; Чт: 08:00-13:00, 14:00-19:00; Пт: 08:00-13:00, 14:00-19:00",+05:00,4.9,41,87471384676,,,,,,https://instagram.com/flagman.talgar,,,,https://wa.me/77002591026,,,,,,,43.309678,77.223423,https://2gis.com/firm/70000001054313823,branch
Алаш ,частная казахская школа,Школы,"улица Нуртазина, 59/1",,,Жана м-н,,Талгар,Талгарский район,Алматинская область,Казахстан,Пн: 08:00-17:00; Вт: 08:00-17:00; Ср: 08:00-17:00; Чт: 08:00-17:00; Пт: 08:00-17:00,+05:00,,,87475502288,,,,,,https://instagram.com/alash_kazakh_school,,,,https://wa.me/77475502288,,,,,,,43.314375,77.227555,https://2gis.com/firm/70000001089693378,branch
Общеобразовательная средняя школа №44 с дошкольным мини-центром,,Школы,"улица Новостройка, 636",,,,,,Талгарский район,Алматинская область,Казахстан,,+05:00,2.1,1,,,,,,,,,,,,,,,,,,43.325263,77.198367,https://2gis.com/firm/70000001077291776,branch
Daryn,инновационная школа,Школы,"улица Лермонтова, 56",,,,,Талгар,Талгарский район,Алматинская область,Казахстан,Пн: 08:00-18:00; Вт: 08:00-18:00; Ср: 08:00-18:00; Чт: 08:00-18:00; Пт: 08:00-18:00,+05:00,4.1,7,87273718798,87770267724,,,,,https://instagram.com/darynimektebi,,,,https://wa.me/77770267724,,,,,,,43.310192,77.227057,https://2gis.com/firm/70000001045482486,branch
Средняя школа №3,,Школы,"2-й микрорайон, 30а",,,2 м-н,,Конаев,Конаев городская администрация,Алматинская область,Казахстан,Пн: 08:00-18:00; Вт: 08:00-18:00; Ср: 08:00-18:00; Чт: 08:00-18:00; Пт: 08:00-18:00,+05:00,3.7,6,87277244270,,,,,,,,,,,,,,,,,43.858935,77.053535,https://2gis.com/firm/70000001041255727,branch
Новая Казахская Средняя Школа на станции Шамалган,ГУ Отдел образования по Карасайскому району Управления Образования Алматинской области,Школы,"улица Карасу, 110а",,,,,,Карасайский район,Алматинская область,Казахстан,Пн: 08:00-20:00; Вт: 08:00-20:00; Ср: 08:00-20:00; Чт: 08:00-20:00; Пт: 08:00-20:00; Сб: 08:00-20:00,+05:00,4.0,5,,,,,,,,,,,,,,,,,,43.357652,76.623874,https://2gis.com/firm/70000001080341149,branch
Genius Talgar,​частная школа,Школы,"улица Рыскулова, 1",,,,,Талгар,Талгарский район,Алматинская область,Казахстан,Пн: 08:00-17:00; Вт: 08:00-17:00; Ср: 08:00-17:00; Чт: 08:00-17:00; Пт: 08:00-17:00; Сб: 08:00-17:00; Вс: 08:00-17:00,+05:00,,,87752752826,,,,,,https://instagram.com/genius_talgar,,,,https://wa.me/77752752826,,,,,,,43.29463,77.234702,https://2gis.com/firm/70000001084000216,branch
Средняя школа им. М.Горького,,Школы,"Юбилейная улица, 1",,,,,,Енбекшиказахский район,Алматинская область,Казахстан,,+05:00,4.0,3,,,,,,,,,,,,,,,,,,43.407613,77.425182,https://2gis.com/firm/70000001077340163,branch
Общеобразовательная школа им. М.Бейсебаева,,Школы,"улица Алтынсарина, 1",,,,,,Карасайский район,Алматинская область,Казахстан,Пн: 09:00-18:00; Вт: 09:00-18:00; Ср: 09:00-18:00; Чт: 09:00-18:00; Пт: 09:00-18:00,+05:00,4.0,7,,,,,,,,,,,,,,,,,,43.371222,76.711366,https://2gis.com/firm/70000001036383631,branch
Средняя школа им. Ахмета Байтурсынова,,Школы,"улица Дуйсекова, 47а",,,,,,Карасайский район,Алматинская область,Казахстан,Пн: 08:00-18:00; Вт: 08:00-18:00; Ср: 08:00-18:00; Чт: 08:00-18:00; Пт: 08:00-18:00,+05:00,4.6,7,87277158755,,,,,http://baitursynov.karasai.edu.kz,https://instagram.com/baitursynuly_mektep,,,,,,,,,,,43.369246,76.621422,https://2gis.com/firm/70000001080092695,branch
Nurdaulet School,частная школа,Школы,"улица Райымбека, 26",,,,,Каскелен,Карасайский район,Алматинская область,Казахстан,Пн: 08:00-18:00; Вт: 08:00-18:00; Ср: 08:00-18:00; Чт: 08:00-18:00; Пт: 08:00-18:00,+05:00,3.4,7,87001525272 (справочная),,,,,http://nurdaulet-school.kz,https://instagram.com/nurdaulet.school,,,,,,,,,,,43.196147,76.630789,https://2gis.com/firm/70000001063181839,branch
Средняя школа им. Т.Рыскулова,,Школы,"улица Кузиева, 69",,,,,,Енбекшиказахский район,Алматинская область,Казахстан,,+05:00,5.0,2,,,,,,,,,,,,,,,,,,43.437308,77.259392,https://2gis.com/firm/70000001077344585,branch
Средняя школа им. Абая,,Школы,"Гагарина улица, 1",,,,,,Енбекшиказахский район,Алматинская область,Казахстан,,+05:00,5.0,1,,,,,,,,,,,,,,,,,,43.392383,77.488417,https://2gis.com/firm/70000001077338554,branch
